iata,icao,name,lat,lon
UTK,03N,Utirik Airport,11.2222,169.8514
OCA,07FA,Ocean Reef Club Airport,25.3254,-80.2748
CSE,0CO2,Crested Butte Airpark,38.8519,-106.9283
CUS,0NM0,Columbus Airport,31.8239,-107.6299
JCY,0TE7,LBJ Ranch Airport,30.2518,-98.6225
WLR,13Z,Loring Seaplane Base,55.6013,-131.6370
NUP,16A,Nunapitchuk Airport,60.9056,-162.4405
PTC,16K,Port Alice Seaplane Base,55.8030,-133.5970
ICY,19AK,Icy Bay Airport,59.9663,-141.6601
PPV,19P,Port Protection Seaplane Base,56.3288,-133.6100
KKK,1KC,Kalakaket Creek AS Airport,64.4166,-156.8204
MHS,1O6,Dunsmuir Muni-Mott Airport,41.2632,-122.2720
NIR,1XA2,Chase Field Industrial Airport,28.3624,-97.6619
GCT,1Z1,Grand Canyon Bar Ten Airstrip,36.2580,-113.2311
ELW,1Z9,Ellamar Seaplane Base,60.8938,-146.7040
LVD,2AK,Lime Village Airport,61.3591,-155.4400
HGZ,2AK6,Hog River Airport,66.1761,-155.6848
OTN,2IG4,Ed-Air Airport,38.8518,-87.4999
TLF,2K5,Telida Airport,63.3939,-153.2690
BZT,2TE0,Eagle Air Park,28.9822,-95.5797
HBH,2Z1,Entrance Island Seaplane Base,57.4122,-133.4385
FAK,2Z6,False Island Seaplane Base,57.5322,-135.2130
BYW,38WA,Blakely Island Airport,48.5792,-122.8238
DRF,3AK5,Drift River Airport,60.5889,-152.1620
BDF,3IS8,Rinkenberger Restricted Landing Area,41.2309,-89.6157
TEH,3T4,Tetlin Airport,63.1246,-142.5180
VRS,3VS,Roy Otten Memorial Airfield,38.4278,-92.8752
GDH,3Z8,Golden Horn Lodge Seaplane Base,59.7470,-158.8750
ATT,4A2,Atmautluak Airport,60.8667,-162.2730
LIV,4AK,Livengood Camp Airport,65.4670,-148.6534
PDB,4K0,Pedro Bay Airport,59.7969,-154.1300
KOZ,4K5,Ouzinkie Airport,57.9421,-152.4643
TNK,4KA,Tununak Airport,60.5696,-165.2466
WHD,4Z7,Hyder Seaplane Base,55.9033,-130.0100
MNT,51Z,Minto Al Wright Airport,65.1480,-149.3687
TKI,57A,Tokeen Seaplane Base,55.9371,-133.3270
WKK,5A8,Aleknagik / New Airport,59.2826,-158.6180
WFB,5KE,Ketchikan Harbor Seaplane Base,55.3499,-131.6770
RFK,5MS1,Rollang Field,32.9535,-90.8451
NNK,5NK,Naknek Airport,58.7356,-157.0222
BKF,5Z9,Lake Brooks Seaplane Base,58.5548,-155.7770
BCS,65LA,Southern Seaplane Airport,29.8661,-90.0216
MMN,6B6,Minute Man Air Field,42.4603,-71.5190
SPQ,6CA3,Catalina Air-Sea Terminal Heliport,33.7492,-118.2750
TSS,6N5,East 34th Street Heliport,40.7424,-73.9721
NYS,6N7,New York Skyports Inc Seaplane Base,40.7351,-73.9728
WYB,78K,Yes Bay Lodge Seaplane Base,55.9163,-131.8010
CWS,78WA,Center Island Airport,48.4900,-122.8316
TEK,7KA,Tatitlek Airport,60.8714,-146.6903
DUF,7NC2,Pine Island Airport,36.2527,-75.7853
SSW,7WA5,Stuart Island Airpark,48.6734,-123.1754
FOB,82CL,Fort Bragg Airport,39.4724,-123.7953
PUL,83Q,Port of Poulsbo Marina Moorage Seaplane Base,47.7340,-122.6470
CCD,84CL,Century City Heliport,34.0610,-118.4173
WMK,84K,Meyers Chuck Seaplane Base,55.7396,-132.2550
AXB,89NY,Maxson Airfield,44.3120,-75.9003
REE,8XS8,Reese Airpark,33.5903,-102.0370
WDN,90WA,Waldron Airstrip,48.7114,-123.0182
WWP,96Z,Whale Pass Seaplane Float Harbor Facility,56.1163,-133.1220
CHU,9A3,Chuathbaluk Airport,61.5791,-159.2160
UGS,9A8,Ugashik Airport,57.5235,-157.3963
JID,9CA3,Recreation and Conference Center Heliport,34.0205,-117.9274
PSQ,9N2,Philadelphia Seaplane Base,39.8590,-75.2996
KLL,9Z8,Levelock Airport,59.1261,-156.8609
SGW,A23,Saginaw Seaplane Base,56.8863,-134.1580
WTL,A61,Tuntutuliak Airport,60.3512,-162.6545
TWA,A63,Twin Hills Airport,59.0747,-160.2750
KCQ,A79,Chignik Lake Airport,56.2550,-158.7750
AAD,HCAD,Adado Airport,6.0958,46.6375
ABP,ABP,Atkamba Airport,-6.0646,141.0952
ACM,ACM,Arica Airport,-2.1437,-71.7593
ALV,AD-ALV,Andorra la Vella Heliport,42.5112,1.5336
ADV,ADV,El Daein Airport,11.4023,26.1186
DST,AE-0237,Dubai Seaplane Terminal,25.2630,55.2720
AEE,AEE,Adareil Airport,10.0536,32.9594
AEQ,AEQ,Ar Horqin Airport,43.9084,120.1510
AFK,AFK,Kondavattavana Tank Seaplane Base,7.2840,81.6440
BBQ,TAPB,Burton-Nibbs International Airport,17.6212,-61.7983
AFT,AGAF,Afutara Aerodrome,-9.1914,160.9486
RNA,AGAR,Ulawa Airport,-9.8605,161.9795
ATD,AGAT,Uru Harbour Airport,-8.8733,161.0110
VEV,AGBA,Barakoma Airport,-7.9128,156.7060
BPF,AGBT,Batuna Aerodrome,-8.5620,158.1193
GEF,AGEV,Geva Airport,-7.5758,156.5970
AGG,AGG,Angoram Airport,-4.0571,144.0738
AKS,AGGA,Gwaunaru'u Airport,-8.7026,160.6820
BNY,AGGB,Bellona/Anua Airport,-11.3022,159.7983
CHY,AGGC,Choiseul Bay Airport,-6.7119,156.3961
BAS,AGGE,Ballalae Airport,-6.9907,155.8867
FRE,AGGF,Fera/Maringe Airport,-8.1075,159.5770
HIR,AGGH,Honiara International Airport,-9.4280,160.0550
MBU,AGGI,Babanakira Airport,-9.7475,159.8390
AVU,AGGJ,Avu Avu Airport,-9.8683,160.4106
IRA,AGGK,Ngorangora Airport,-10.4497,161.8980
SCZ,AGGL,Santa Cruz/Graciosa Bay/Luova Airport,-10.7203,165.7950
MUA,AGGM,Munda Airport,-8.3280,157.2630
GZO,AGGN,Nusatupe Airport,-8.0978,156.8640
MNY,AGGO,Mono Airport,-7.4169,155.5650
PRS,AGGP,Parasi Airport,-9.6417,161.4250
RNL,AGGR,Rennell/Tingoa Airport,-11.5500,160.0628
EGM,AGGS,Sege Airport,-8.5789,157.8760
NNB,AGGT,Santa Ana Airport,-10.8480,162.4541
RUS,AGGU,Marau Airport,-9.8617,160.8250
VAO,AGGV,Suavanao Airport,-7.5856,158.7310
XYA,AGGY,Yandina Airport,-9.0928,159.2184
AGK,AGK,Kagua Airport,-6.3964,143.8536
KGE,AGKG,Kaghau Airport,-7.3305,157.5850
KUE,AGKU,Kukudu Airport,-8.0262,156.9478
KWS,AGKW,Kwailabesi Airport,-8.3605,160.7751
LLM,AGLM,Lomlom Airport,-10.2968,166.3273
NAZ,AGNA,Nana Airport,-10.6758,162.2049
MHM,AGOB,Manaoba Airport,-8.3250,160.8005
GTA,AGOK,Gatokae Aerodrome,-8.7384,158.2028
RIN,AGRC,Ringi Cove Airport,-8.1264,157.1430
RBV,AGRM,Ramata Airport,-8.1681,157.6430
TLG,AGTI,Tulaghi Heliport,-9.1080,160.1492
AHY,AHY,Ambatolhy Airport,-20.0158,45.5350
AIC,AIP,Ailinglaplap Airok Airport,7.2794,168.8257
CEX,AK13,Chena Hot Springs Airport,65.0518,-146.0470
SOL,AK26,Solomon State Field,64.5605,-164.4457
HED,AK33,Herendeen Bay Airport,55.8023,-160.9013
TWE,AK49,Taylor Airport,65.6793,-164.7990
KTH,AK56,Tikchik Lodge Seaplane Base,59.9632,-158.4770
NKI,AK62,Naukati Bay Seaplane Base,55.8496,-133.2280
CDL,AK75,Candle 2 Airport,65.9077,-161.9260
AOS,AK81,Amook Bay Seaplane Base,57.4715,-153.8150
BSW,AK97,Boswell Bay Airport,60.4231,-146.1460
AKM,AKM,Zakuoma Airport,10.8903,19.8172
ALZ,ALZ,Alitak Seaplane Base,56.8973,-154.2497
YUK,UDCK,Syunik Airport,39.2023,46.4552
AME,AME,Alto Molocue Airport,-15.6103,37.6814
AMY,FMMB,Ambatomainty Airport,-17.6867,45.6239
INU,ANYN,Nauru International Airport,-0.5479,166.9195
ANZ,ANZ,Angus Downs Airport,-25.0325,132.2748
CTV,AO-0001,Catoca Airport,-9.4314,20.3116
ANL,AO-0005,Andulo Airport,-11.4723,16.7109
CNZ,AO-CNZ,Cangamba Airport,-13.7106,19.8611
DRC,AO-DRC,Dirico Airport,-17.9819,20.7681
NDF,AO-NDF,N'dalatando Airport,-9.2804,14.9824
AOB,AOB,Annanberg Airport,-4.9042,144.6358
AOD,AOD,Abou-Deïa Airport,11.4773,19.2874
APP,APP,Asapa Airport,-8.9792,148.1036
AQY,AQY,Girdwood-Alyeska Airport,60.9688,-149.1198
QRF,AR-0005,Bragado Airport,-35.1458,-60.4803
CVI,AR-0007,Caleta Olivia Airport,-46.3743,-67.5941
CNT,AR-0009,Charata Airport,-27.2164,-61.2103
VGS,AR-0010,General Villegas Airport,-34.9957,-62.9997
LMD,AR-0011,Los Menucos Airport,-40.8177,-68.0747
VCF,AR-0017,Valcheta Airport,-40.7000,-66.1500
CPG,AR-0390,Carmen de Patagones Airport,-40.7781,-62.9803
ARP,ARP,Aragip Airport,-9.8833,149.4833
ASZ,ASZ,Asirim Airport,-6.0097,150.3686
WFR,AT98,[Duplicate] Wolf's Fang Runway,-71.5264,8.7995
LYT,YLTT,Lady Elliot Island Airstrip,-24.1129,152.7156
GYZ,YGRM,Gruyere Airport,-28.0345,123.8151
AGW,AU-AGW,Agnew Airport,-12.1456,142.1494
AYD,AU-AYD,Alroy Downs Airport,-19.2908,136.0790
BYX,AU-BYX,Baniyala Airport,-13.1981,136.2270
COB,AU-COB,Coolibah Airport,-15.5483,130.9620
CRJ,AU-CRJ,Coorabie Airport,-31.8944,132.2960
CRY,AU-CRY,Carlton Hill Airport,-15.5019,128.5340
CSD,AU-CSD,Cresswell Downs Airport,-17.9480,135.9160
DYM,AU-DYM,Diamantina Lakes Airport,-23.7617,141.1450
HIS,AU-HIS,Hayman Island Resort Seaplane Base,-20.0600,148.8810
HLV,AU-HLV,Helenvale Airport,-15.6858,145.2150
KBD,YKBS,Kimberley Downs Airport,-17.3986,124.3556
KGR,AU-KGR,Kulgera Airport,-25.8428,133.2920
PEP,AU-PEP,Peppimenarti Airport,-14.1442,130.0910
RDA,AU-RDA,Rockhampton Downs Airport,-18.9533,135.2010
SSK,AU-SSK,Sturt Creek Airport,-19.1664,128.1740
SWB,AU-SWB,Shaw River Airport,-21.5103,119.3620
TWP,AU-TWP,Torwood Airport,-17.3633,143.7500
ZVG,AU-ZVG,Springvale Airport,-17.7869,127.6700
AWR,AWR,Awar Airport (unusable),-4.1223,144.8533
AXF,ZBAL,Alxa Left Banner Bayanhot Airport,38.7483,105.5842
AXO,AXO,Pantar Kabir Airport,-8.2448,124.2191
AMF,AYAA,Ama Airport,-4.1011,141.6700
UAE,AYAE,Mount Aue Airport,-6.2300,144.6642
AFR,AYAF,Afore Airstrip,-9.1387,148.3907
AUP,AYAG,Agaun Airport,-9.9277,149.3900
ATP,AYAI,Aitape Airport,-3.1436,142.3468
AIH,AYAK,Aiambak Airport,-7.3428,141.2675
AMU,AYAM,Amanab Airport,-3.5860,141.2143
ADC,AYAN,Andakombe Airport,-7.1372,145.7447
AIE,AYAO,Aiome Airport,-5.1457,144.7307
KPM,AYAQ,Kompiam Airport,-5.3817,143.9247
AUJ,AYAT,Ambunti Airport,-4.2157,142.8232
AWB,AYAW,Awaba Airport,-8.0134,142.7521
AEK,AYAX,Aseki Airport,-7.3508,146.1940
AYU,AYAY,Aiyura Airport,-6.3381,145.9042
VMU,AYBA,Baimuru Airport,-7.4970,144.8218
BCP,AYBC,Bambu Airport,-5.8636,146.4925
BNM,AYBD,Bodinumu Airport,-9.1078,147.6667
BMZ,AYBF,Bamu Airport,-7.8485,143.2433
BDZ,AYBG,Baindoung Airport,-6.3472,146.9422
BSP,AYBH,Bensbach Airport,-8.8581,141.2594
BWP,AYBI,Bewani Airport,-3.0217,141.1653
BUA,AYBK,Buka Airport,-5.4223,154.6727
BAA,AYBL,Bialla Airport,-5.3306,151.0080
OPU,AYBM,Balimo Airport,-8.0500,142.9330
BMH,AYBO,Bomai Airport,-6.3732,144.6370
BPD,AYBP,Bapi Airstrip,-7.7436,147.0206
BPK,AYBQ,Biangabip Airport,-5.5264,141.7446
BRP,AYBR,Biaru Airport,-7.6693,146.7594
BUL,AYBU,Bulolo Airport,-7.2163,146.6495
XBN,AYBZ,Biniguni Airport,-9.6425,149.3039
CVB,AYCB,Chungribu Airport,-4.8066,144.7150
CGC,AYCG,Cape Gloucester Airport,-5.4552,148.4223
CMU,AYCH,Chimbu Airport,-6.0243,144.9710
SQT,AYCS,China Strait Airstrip,-10.5628,150.6907
DBP,AYDB,Debepare Airport,-6.3086,141.9056
DER,AYDE,Derim Airport,-6.1447,147.1072
BNT,AYDI,Bundi Airport,-5.7422,145.2275
MDM,AYDK,Munduku Airport,-4.6204,143.4516
KPF,AYDL,Kondobol Airport,-8.5336,142.5049
DNU,AYDN,Dinangat Airport,-6.1546,146.6772
DOI,AYDO,Doini Airport,-10.7009,150.7218
DOO,AYDR,Dorobisoro Airport,-9.4619,147.9209
DAU,AYDU,Daru Airport,-9.0868,143.2080
KRU,AYEA,Kerau Airport,-8.2716,147.0719
EMS,AYEB,Embessa Airport,-9.4470,148.7628
XYR,AYED,Edwaki Airport,-3.8840,141.7922
EMI,AYEE,Emirau Airport,-1.6539,149.9758
EFG,AYEF,Efogi Airport,-9.1538,147.6598
MHY,AYEH,Morehead Airport,-8.7141,141.6444
EPT,AYEL,Eliptamin Airport,-5.0412,141.6779
EGA,AYEN,Engati Airstrip,-6.9179,146.1053
EMO,AYEO,Emo River Airstrip,-9.1234,148.0415
ERU,AYER,Erume Airport,-8.2538,146.9747
MFZ,AYES,Meselia Airport,-6.1364,149.1183
BOT,AYET,Bosset Airport,-7.2373,141.1063
ERE,AYEV,Erave Airport,-6.6065,143.9002
SWE,AYEW,Siwea Airport,-6.2842,147.5824
FNE,AYFA,Fane Airport,-8.5493,147.0858
FRQ,AYFE,Feramin Airport,-5.2080,141.6988
FIN,AYFI,Finschhafen Airport,-6.6218,147.8541
FAQ,AYFR,Frieda River Airport,-4.6105,141.9601
FUM,AYFU,Fuma Airport,-6.3933,142.4408
GKA,AYGA,Goroka Airport,-6.0817,145.3920
GEW,AYGC,Gewoia Airport,-9.2263,148.4949
GUG,AYGF,Guari Airport,-8.1286,146.8722
GRL,AYGG,Garasa Airport,-7.9807,147.2135
GAR,AYGI,Garaina Airport,-7.8756,147.1413
GAZ,AYGJ,Guasopa Airport,-9.2259,152.9444
GOE,AYGL,Gonaili Airport,-5.5277,151.5733
GUR,AYGN,Gurney Airport,-10.3115,150.3340
GAP,AYGP,Gusap Airport,-6.0532,145.9590
PNP,AYGR,Girua Airport,-8.8045,148.3090
GBC,AYGS,Gasuke Airport,-6.1028,141.7393
GMI,AYGT,Gasmata Island Airport,-6.2711,150.3310
AKG,AYGU,Anguganak Airport,-3.5605,142.2173
GVI,AYGV,Green River Airport,-3.9022,141.1705
GOC,AYGX,Gora Airstrip,-9.0021,148.2364
HBD,AYHB,Habi Airport,-6.3200,142.4893
HNI,AYHE,Heiweni Airport,-7.4223,146.4276
HYF,AYHF,Hayfields Airport,-3.6984,143.0579
HNN,AYHH,Honinabi Airport,-6.2457,142.1771
HKN,AYHK,Hoskins Airport,-5.4638,150.4073
HIT,AYHO,Haivaro Airport,-6.9406,143.0590
HWA,AYHU,Hawabango Airport,-7.3930,146.0035
IIS,AYIA,Nissan Island Airport,-4.4997,154.2260
IDN,AYID,Indagen Airport,-6.2266,147.2440
IMN,AYII,Imane Airport,-6.7524,146.1072
KGM,AYIM,Kungim Airport,-5.6710,141.0300
IMD,AYIO,Imonda Airport,-3.3280,141.1573
KIE,AYIQ,Aropa Airport,-6.3057,155.7282
IAL,AYIU,Ialibu Airport,-6.2782,143.9944
WSA,AYIW,Wasua Airport,-8.2836,142.8697
WIU,AYIX,Witu Airport,-4.6895,149.4401
MPX,AYIY,Miyanmin Airport,-4.9031,141.6208
KGH,AYJO,Yongai Airport,-8.5289,147.4603
JOP,AYJS,Josephstaal Airport,-4.7471,145.0071
LSA,AYKA,Losuia Airport,-8.5058,151.0810
KBM,AYKB,Kabwum,-6.1555,147.1915
KDR,AYKC,Kandrian Airport,-6.1922,149.5478
KMF,AYKD,Kamina Airport,-7.6493,145.9569
KPA,AYKG,Kopiago Airport,-5.3883,142.4977
KAQ,AYKH,Kamulai Airport,-8.1507,146.8340
UNG,AYKI,Kiunga Airport,-6.1257,141.2820
KNE,AYKJ,Kanainj Airport,-5.2903,144.7072
KRI,AYKK,Kikori Airport,-7.4244,144.2501
KMA,AYKM,Kerema Airport,-7.9636,145.7710
KKD,AYKO,Kokoda Airport,-8.8847,147.7310
KGW,AYKQ,Kagi Airport,-9.1359,147.6694
KRX,AYKR,Kar Kar Airport,-4.5570,145.9404
KZF,AYKT,Kaintiba Airport,-7.5003,146.0338
KUQ,AYKU,Kuri Airport,-7.1351,143.2761
KVG,AYKV,Kavieng Airport,-2.5794,150.8080
KWO,AYKW,Kawito Airport,-7.9770,142.8236
LNV,AYKY,Londolovit Airport,-3.0436,152.6290
LAB,AYLB,Lab Lab Airport,-5.7204,148.0566
KEG,AYLG,Keglsugl Airport,-5.8328,145.0972
KII,AYLI,Kibuli Airstrip,-9.0065,142.6981
LGN,AYLL,Linga Linga Airport,-5.5319,149.7342
LNM,AYLN,Langimar Airport,-7.2231,146.2271
LWI,AYLO,Lowai Airport,-6.3344,146.6458
LPN,AYLP,Leron Plains Airport,-6.3917,146.3434
LNG,AYLS,Lese Airport,-8.2799,146.2765
LNC,AYLT,Lengbati Airport,-6.3846,147.3686
LMI,AYLU,Lumi Airport,-3.4768,142.0413
LSJ,AYLX,Long Island Airport,-5.3604,147.0177
AYM,AYM,Yas Island Seaplane Base,24.4670,54.6103
MRM,AYMA,Manari Airport,-9.1908,147.6219
OBM,AYMB,Morobe Airport,-7.7400,147.5900
MYX,AYMC,Menyamya Airport,-7.2117,146.0194
MAG,AYMD,Madang Airport,-5.2071,145.7890
HGU,AYMH,Mount Hagen Kagamuga Airport,-5.8282,144.2994
MXK,AYMI,Mindik Airport,-6.4717,147.4411
MPG,AYMJ,Makini Airport,-6.5322,147.6512
GUV,AYML,Mougulu Airport,-6.2809,142.4208
MDU,AYMN,Mendi Airport,-6.1477,143.6570
MAS,AYMO,Momote Airport,-2.0619,147.4240
MLQ,AYMP,Malalaua Airport,-8.0714,146.1555
MQO,AYMQ,Malam Airport,-8.7092,142.6497
MXH,AYMR,Moro Airport,-6.3633,143.2380
MIS,AYMS,Misima Island Airport,-10.6892,152.8380
MKN,AYMV,Malekolon Airport,-4.0234,153.6573
MWG,AYMW,Marawaka Airport,-6.9736,145.8849
MPU,AYMZ,Mapua(Mabua) Airport,-2.8114,151.9911
NKN,AYNA,Nankina Airport,-5.8370,146.4533
KEX,AYNB,Kanabea Airport,-7.5389,145.9050
NDN,AYNC,Nadunumu Airport,-9.1436,147.6842
AUI,AYND,Aua Island Airport,-1.4606,143.0647
GBF,AYNE,Negarbo(Negabo) Airport,-6.5678,144.7031
MFO,AYNG,Manguna Airport,-5.5778,151.7923
NUG,AYNI,Nuguria Airstrip,-3.4075,154.7383
NDI,AYNJ,Namudi Airport,-9.4738,148.3294
KSB,AYNM,Kasonombe Airport,-6.3819,146.9859
KDP,AYNN,Kandep Airport,-5.8406,143.5072
NMN,AYNO,Nomane Airport,-6.3218,145.0707
BXZ,AYNS,Bunsil Airport,-5.7243,147.8667
UKU,AYNU,Nuku Airport,-3.6768,142.4849
ATN,AYNX,Namatanai Airport,-3.6695,152.4380
NBA,AYNY,Nambaiyufa Airport,-6.2412,145.2424
LAE,AYNZ,Nadzab Tomodachi International Airport,-6.5680,146.7265
OBX,AYOB,Obo Airport,-7.5906,141.3243
KGB,AYOE,Konge Airport,-6.2239,147.2152
OKV,AYOF,Okao Airport,-5.5567,141.0328
OGE,AYOG,Ogeranang Airport,-6.4668,147.3642
OKP,AYOJ,Oksapmin Airport,-5.2261,142.2259
HOC,AYOK,Komako Airport,-7.3984,145.8827
KQL,AYOL,Kol Airport,-5.7312,144.8460
OSE,AYOM,Omora Airport,-7.8278,147.0806
KOM,AYOO,Komo-Manda Airport,-6.0682,142.8598
KSP,AYOP,Kosipe Airport,-8.4507,147.2092
KCJ,AYOQ,Komaio Airport,-7.2714,143.5952
OLQ,AYOV,Olsobip Airport,-5.3897,141.5153
KDE,AYOW,Koroba Airport,-5.6952,142.7441
OPB,AYOY,Open Bay Airport,-4.7947,151.6962
PLE,AYPB,Paiela Airport,-5.3724,142.9758
PGB,AYPC,Pangoa Airport,-7.0226,141.5605
PDI,AYPD,Pindiu Airport,-6.4451,147.5158
APR,AYPE,April River Airport,-4.6767,142.5401
PGN,AYPG,Pangia Airport,-6.3860,144.1084
PMP,AYPJ,Pimaga Airport,-6.4992,143.5103
MPF,AYPO,Mapoda Airport,-7.9790,143.1694
PMN,AYPQ,Pumani Airport,-9.7469,149.4766
WLU,AYPU,Walluanda Airport,-6.4752,143.9872
POM,AYPY,Port Moresby Jacksons International Airport,-9.4434,147.2200
KRJ,AYQA,Karawari Airstrip,-4.5967,143.5225
TLP,AYQL,Tumolbil Airport,-4.7748,141.0133
SPH,AYQO,Sopu Airport,-8.3038,147.1659
ONB,AYQQ,Ononge Airport,-8.6744,147.2624
SXA,AYQS,Sialum Airport,-6.0908,147.5955
KIQ,AYRA,Kira Airport,-8.0651,147.3320
RBP,AYRE,Raba Raba Airport,-9.9711,149.8322
RMN,AYRG,Rumginae Airport,-5.8972,141.2717
KMR,AYRI,Karimui Airport,-6.4921,144.8230
RKU,AYRK,Kairuku Airport,-8.8170,146.5244
MWI,AYRM,Maramuni Airport,-5.1300,143.4829
KOR,AYRO,Kakoro(Koroko) Airstrip,-7.8347,146.5335
MRH,AYRV,May River Airstrip,-4.3615,141.7850
SBE,AYSA,Suabi Airport,-6.1044,142.2783
SDI,AYSD,Saidor Airport,-5.6271,146.4628
NIS,AYSE,Simberi Airport,-2.6622,151.9978
SFU,AYSF,Safia Airport,-9.5945,148.6393
SIL,AYSG,Sila Airport,-9.0736,148.3893
SBV,AYSH,Sabah Airport,-5.5765,155.0489
SIM,AYSJ,Simbai Airport,-5.2786,144.5447
SGK,AYSK,Sengapi Airstrip,-5.1258,144.3236
SXH,AYSL,Sehulea Airport,-9.9645,151.1619
SBC,AYSO,Selbang Airport,-5.3150,141.7520
SMH,AYSP,Sapmanga Airport,-6.0753,146.8111
SPV,AYSQ,Sepik Plains Airport,-3.8821,143.6734
TDS,AYSS,Sasereme Airport,-7.6217,142.8680
SKC,AYSU,Suki Airport,-8.0466,141.7222
SXW,AYSV,Sauren Airport,-5.9701,148.8543
SWG,AYSW,Satwag Airport,-6.1396,147.2792
MBV,AYSX,Masa Airport,-6.3450,147.5910
TIZ,AYTA,Tari Airport,-5.8450,142.9480
TBG,AYTB,Tabubil Airport,-5.2805,141.2276
TFM,AYTE,Telefomin Airport,-5.1261,141.6419
TDB,AYTF,Tetebedi Airport,-9.1586,148.0686
TGL,AYTG,Tagula Airport,-11.3311,153.2029
TFB,AYTH,Tifalmin Airport,-5.1172,141.4181
TPI,AYTI,Tapini Airport,-8.3567,146.9892
RAB,AYTK,Tokua Airport,-4.3405,152.3800
TKW,AYTN,Tekin Airport,-5.2437,142.1652
KDQ,AYTO,Kamberatoro Airport,-3.6006,141.0517
TEP,AYTP,Tep Tep Airport,-5.9553,146.5595
TBQ,AYTR,Tarabo Airport,-6.4667,145.5322
TSW,AYTS,Tsewi Airport,-7.0695,146.1272
TRJ,AYTT,Tarakbits Airport,-5.6140,141.0421
TFI,AYTU,Tufi Airport,-9.0760,149.3198
TBE,AYTV,Timbunke Airport,-4.1966,143.5192
TWY,AYTW,Tawa Airport,-7.4463,146.1067
TEO,AYTY,Terapo Airport,-8.1697,146.1944
TKB,AYTZ,Tekadu Airport,-7.6808,146.5503
UMC,AYUC,Umba Airport,-7.0214,145.9660
URU,AYUE,Uroubi Airport,-9.5162,148.5591
UBI,AYUI,Buin Airport,-6.7292,155.6833
AUV,AYUM,Aumo Airport,-5.7311,148.4453
GLP,AYUP,Gulgubip Airport,-5.2808,141.5411
UPR,AYUR,Upiara Airport,-8.5411,142.6503
KUX,AYUY,Kuyol Airport,-5.3724,141.6239
UVO,AYUZ,Uvol Airport,-6.0178,150.9557
TLW,AYVL,Talasea Airport,-5.2726,150.0089
TCJ,AYVM,Torembi Airport,-4.0165,143.1329
VAI,AYVN,Vanimo Airport,-2.6926,141.3028
TON,AYVO,Tonu Airport,-6.6552,155.4326
WUV,AYVW,Wuvulu Island Airport,-1.7361,142.8367
WAO,AYWB,Wabo Airport,-6.9894,145.0751
WTT,AYWC,Wantoat Airport,-6.1325,146.4678
WBM,AYWD,Wapenamanda Airport,-5.6353,143.8922
WAJ,AYWF,Wawoi Falls Airport,-6.9523,142.6557
AGL,AYWG,Wanigela Airport,-9.3375,149.1556
WNU,AYWH,Wanuma Airport,-4.8961,145.3213
WBC,AYWJ,Wapolu Airport,-9.3376,150.5093
WWK,AYWK,Wewak International Airport,-3.5838,143.6690
WOA,AYWO,Wonenara Airport,-6.7969,145.8919
WKN,AYWQ,Wakunai Airport,-5.8603,155.2223
WSU,AYWS,Wasu Airport,-5.9617,147.1982
WTP,AYWT,Woitape Airport,-8.5458,147.2525
WUG,AYWU,Wau Airport,-7.3456,146.7186
YVD,AYXE,Yeva Airport,-7.5480,146.1880
SMJ,AYXI,Sim Airport,-7.7500,146.9273
TLO,AYXO,Tol Airport,-4.9808,152.0100
WPM,AYXP,Wipim Airport,-8.7882,142.8820
WEP,AYXW,Weam Airport,-8.6184,141.1381
AYY,AYY,Arugam Bay SPB,6.8600,81.8239
KYX,AYYE,Yalumet Airport,-6.0900,147.0117
YEQ,AYYK,Yenkis(Yankisa) Airport,-5.1097,143.9177
TCK,AYYL,Tinboli Airport,-4.0949,143.3838
LNF,AYYM,Munbil Airport,-4.8559,141.2202
RAX,AYYO,Oram Airport,-9.6329,148.0481
KPE,AYYP,Yapsiei Airport,-4.6281,141.0942
KSX,AYYR,Yasuru Airport,-6.6015,146.1813
ZEN,AYZA,Zenag Airport,-6.9522,146.6163
SWR,AYZI,Silur Airport,-4.5299,153.0544
WUM,AYZM,Wasum Airport,-6.0491,149.3370
SIZ,AYZN,Sissano Airport,-2.9994,142.0445
OSG,AYZS,Ossima Airport,-2.9156,141.2973
ZXT,UBTT,Zabrat Airport,40.4949,49.9771
HAE,AZ15,Lava Falls Heliport,36.1916,-113.0920
AZB,AZB,Amazon Bay Airport,-10.2992,149.3383
BAJ,BAJ,Bali Airport,-4.8833,149.1333
BCW,BCW,Benguera Island Airport,-21.8533,35.4383
BCZ,BCZ,Milyakburra Airport,-13.7808,136.2017
JAM,BG-JAM,Bezmer Air Base,42.4549,26.3522
JEG,BGAA,Aasiaat Airport,68.7218,-52.7847
AOQ,BGAG,Aappilattoq Heliport,72.8870,-55.5963
AGM,BGAM,Tasiilaq Heliport,65.6123,-37.6183
LLU,BGAP,Alluitsup Paa Heliport,60.4644,-45.5692
QUV,BGAQ,Aappilattoq Heliport,60.1484,-44.2869
JRK,BGAR,Arsuk Heliport,61.1768,-48.4197
QUW,BGAS,Ammassivik Heliport,60.5974,-45.3824
QGQ,BGAT,Attu Heliport,67.9407,-53.6219
UAK,BGBW,Narsarsuaq Airport,61.1596,-45.4247
JCH,BGCH,Qasigiannguit Heliport,68.8228,-51.1734
CNP,BGCO,Neerlerit Inaat Airport,70.7431,-22.6505
QFG,BGET,Eqalugaarsuit Heliport,60.6197,-45.9141
QFN,BGFD,Narsarmijit Heliport,60.0047,-44.6569
JGR,BGGD,Kangilinnguit Heliport,61.2290,-48.0970
GOH,BGGH,Nuuk International Airport,64.1911,-51.6791
JGO,BGGN,Qeqertarsuaq Heliport,69.2512,-53.5149
IKE,BGIA,Ikerasak Heliport,70.4981,-51.3031
QFI,BGIG,Iginniarfik Heliport,68.1458,-53.1692
QRY,BGIK,Ikerassaarsuk Heliport,68.1409,-53.4415
XIQ,BGIL,Ilimanaq Heliport,69.0809,-51.1143
IUI,BGIN,Innarsuit Heliport,73.1999,-56.0108
IOQ,BGIS,Isortoq Heliport,65.5478,-38.9766
QJI,BGIT,Ikamiut Heliport,68.6343,-51.8323
JAV,BGJN,Ilulissat Airport,69.2432,-51.0571
QPW,BGKA,Kangaatsiaq Heliport,68.3127,-53.4602
KUS,BGKK,Kulusuk Airport,65.5736,-37.1236
KUZ,BGKM,Kuummiut Heliport,65.8639,-36.9979
KHQ,BGKQ,Kullorsuaq Heliport,74.5781,-57.2268
KGQ,BGKS,Kangersuatsiaq Heliport,72.3811,-55.5366
QJE,BGKT,Kitsissuarsuit Heliport,68.8579,-53.1233
IOT,BGLL,Illorsuit Heliport,71.2419,-53.5629
JSU,BGMQ,Maniitsoq Airport,65.4125,-52.9394
JNN,BGNN,Nanortalik Heliport,60.1419,-45.2330
JUU,BGNQ,Nuugaatsiaq Heliport,71.5388,-53.2050
JNS,BGNS,Narsaq Heliport,60.9173,-46.0599
NIQ,BGNT,Niaqornat Heliport,70.7894,-53.6629
NSQ,BGNU,Nuussuaq Heliport,74.1099,-57.0650
JFR,BGPT,Paamiut Airport,62.0147,-49.6709
PQT,BGQE,Qeqertaq Heliport,69.9959,-51.3009
NAQ,BGQQ,Qaanaaq Airport,77.4886,-69.3887
QJH,BGQT,Qassimiut Heliport,60.7810,-47.1562
OBY,BGSC,Ittoqqortoormiit Heliport,70.4882,-21.9717
SFJ,BGSF,Kangerlussuaq International Airport,67.0104,-50.7153
SGG,BGSG,Sermiligaaq Heliport,65.9059,-36.3783
SRK,BGSI,Siorapaluk Heliport,77.7865,-70.6387
QOQ,BGSO,Saarloq Heliport,60.5378,-46.0247
JHS,BGSS,Sisimiut Airport,66.9513,-53.7293
SAE,BGST,Saattut Heliport,70.8112,-51.6313
SVR,BGSV,Savissivik Heliport,76.0186,-65.1177
TQA,BGTA,Tasiusaq Heliport,73.3731,-56.0603
THU,BGTL,Pituffik Space Base,76.5306,-68.7005
TQI,BGTN,Tiniteqilaaq Heliport,65.8920,-37.7834
XEQ,BGTQ,Tasiusaq Heliport,60.1943,-44.8134
JUV,BGUK,Upernavik Airport,72.7902,-56.1306
UMD,BGUM,Uummannaq Heliport,70.6804,-52.1116
JQA,BGUQ,Qaarsut Airport,70.7342,-52.6962
JUK,BGUT,Ukkusissat Heliport,71.0494,-51.8900
BHL,BHL,Bahía de los Ángeles Airport,28.9786,-113.5610
BHT,BHT,Brighton Downs Airport,-23.3658,141.5629
AEY,BIAR,Akureyri International Airport,65.6566,-18.0720
BIU,BIBD,Bildudalur Airport,65.6413,-23.5462
BGJ,BIBF,Borgarfjörður eystri Airport,65.5168,-13.8158
BLO,BIBL,Blönduós Airport,65.6450,-20.2875
BXV,BIBV,Breiðdalsvík Airport,64.7900,-14.0439
DJU,BIDV,Djúpivogur Airport,64.6424,-14.2773
EGS,BIEG,Egilsstaðir Airport,65.2833,-14.4014
FAG,BIFM,Fagurhólsmýri Airport,63.8747,-16.6411
GUU,BIGF,Grundarfjörður Airport,64.9914,-23.2247
GJR,BIGJ,Gjögur Airport,65.9953,-21.3269
GRY,BIGR,Grímsey Airport,66.5458,-18.0173
HVK,BIHK,Hólmavík Airport,65.7047,-21.6964
HFN,BIHN,Hornafjörður Airport,64.2956,-15.2272
HZK,BIHU,Húsavík Airport,65.9523,-17.4260
IFJ,BIIS,Ísafjörður Airport,66.0581,-23.1353
KEF,BIKF,Keflavik International Airport,63.9850,-22.6056
OPA,BIKP,Kópasker Airport,66.3108,-16.4667
SAK,BIKR,Sauðárkrókur Airport,65.7317,-19.5728
NOR,BINF,Norðfjörður Airport,65.1319,-13.7464
RHA,BIRE,Reykhólar Airport,65.4526,-22.2061
OLI,BIRF,Rif Airport,64.9114,-23.8182
RFN,BIRG,Raufarhöfn Airport,66.4064,-15.9183
RKV,BIRK,Reykjavík Domestic Airport,64.1287,-21.9376
MVA,BIRL,Mývatn Airport,65.6558,-16.9181
SIJ,BISI,Siglufjörður Airport,66.1378,-18.9082
SYK,BIST,Stykkishólmur Airport,65.0589,-22.7646
TEY,BITE,Þingeyri Airport,65.8703,-23.5600
THO,BITN,Þórshöfn Airport,66.2185,-15.3347
VEY,BIVM,Vestmannaeyjar Airport,63.4243,-20.2789
VPN,BIVO,Vopnafjörður Airport,65.7206,-14.8506
BJE,BJE,Baleela Airport,11.1994,28.5231
BJQ,BJQ,Bahja Airport,19.8731,56.0678
BJT,BJT,Bentota River Waterdrome,6.4310,79.9960
PRN,BKPR,Priština Adem Jashari International Airport,42.5728,21.0358
BMQ,BMQ,Bamburi Airport,-3.9814,39.7311
BNF,BNF,Baranof Warm Springs Float and Seaplane Base,57.0888,-134.8331
BNV,BNV,Boana Airport,-6.4266,146.8267
BVL,BO-BVL,Baures Airport,-13.6544,-63.7047
BOV,BOV,Boang Airport,-3.3834,153.2812
BQV,BQV,Bartlett Cove Seaplane Base,58.4552,-135.8850
CJZ,BR-0263,Pedro Vieira Moreira Airport,-6.8827,-38.6158
VDC,SBVC,Glauber de Andrade Rocha Airport,-14.9079,-40.9148
CMP,BR-1948,Santana do Araguaia Airport,-9.3199,-50.3285
AAI,BR-2149,Arraias Airport,-13.0252,-46.8841
ITN,BR-2152,Tertuliano Guedes de Pinho Airport,-14.8105,-39.2904
LEP,BR-2171,Leopoldina Airport,-21.4682,-42.7271
CPU,BR-2235,Cururupu Airport,-1.8200,-44.8641
CTQ,BR-2236,Santa Vitória do Palmar Airport,-33.5020,-53.3449
APY,BR-2757,Alto Parnaíba Airport,-9.0853,-45.9556
JRN,BR-3086,Juruena Airport,-10.3141,-58.4949
MTG,BR-3150,Vila Bela da Santíssima Trindade Airport,-14.9955,-59.9457
ALT,BR-ALT,Alenquer Municipal Airport,-1.9170,-54.7231
NSB,BS-NSB,Bimini North Seaplane Base,25.7670,-79.2500
BSV,BSV,Besakoa Airport,-15.6725,47.0617
BTZ,VTSY,Betong International Airport,5.7900,101.1500
HUK,BW-HUK,Hukuntsi Airport,-23.9897,21.7581
BWJ,BWJ,Bawan Airport,-6.3969,146.8817
BXL,BXL,Blue Lagoon Seaplane Base,-16.9430,177.3680
TXC,BY-0001,Orsha Airport - Balbasovo Air Base,54.4400,30.2967
BYA,BYA,Boundary Airport,64.0777,-141.1221
BYL,BYL,Bella Yella Airport,7.3692,-9.9937
BYV,BYV,Beira Lake Seaplane Base,6.9294,79.8542
BCV,BZ-BCV,Hector Silva Airstrip,17.2696,-88.7765
BGK,BZ-BGK,Big Creek Airport,16.5194,-88.4079
CUK,BZ-CUK,Caye Caulker Airport,17.7350,-88.0329
CYC,BZ-CYC,Caye Chapel Airport,17.6838,-88.0450
CZH,BZ-CZH,Corozal Airport,18.3822,-88.4119
DGA,BZ-DGA,Dangriga Airport,16.9825,-88.2310
INB,BZ-INB,Independence Airport,16.5346,-88.4416
MDB,BZ-MDB,Melinda Airport,16.9984,-88.3182
ORZ,BZ-ORZ,H.E Alfredo Martinez (Tower Hill) Airstrip,18.0468,-88.5839
PND,BZ-PND,Punta Gorda Airport,16.1024,-88.8083
SJX,BZ-SJX,Sartaneja Airport,18.3561,-88.1308
SPR,BZ-SPR,John Greif II Airport,17.9139,-87.9711
SQS,BZ-SQS,Matthew Spain Airport,17.1859,-89.0099
STU,BZ-STU,Santa Cruz Airport,18.2721,-88.4563
SVK,BZ-SVK,Silver Creek Airport,16.7283,-88.3692
TZA,BZ-TZA,Sir Barry Bowen Municipal Airport,17.5172,-88.1958
BZB,BZB,Bazaruto Island Airport,-21.5411,35.4729
BZM,BZM,Bemolanga Airport,-17.6925,45.0888
PFM,CA-0297,Primrose Airport,55.3900,-111.1198
YSV,CA-0322,Saglek Airport,58.4743,-62.6540
YRR,CA-0446,Stuart Island Airstrip,50.4094,-125.1316
YMV,CA-0504,Mary River Aerodrome,71.3242,-79.3569
YHC,CA-0841,Hakai Passage Water Aerodrome,51.6697,-128.0818
YMF,CA-0923,Montague Harbour Seaplane Base,48.8922,-123.3922
PYS,CA92,Paradise Skypark Airport,39.7103,-121.6165
YBW,CAB3,Bedwell Harbour Seaplane Base,48.7500,-123.2330
YTP,CAB4,Tofino Harbour Seaplane Base,49.1550,-125.9100
CBA,CAB7,Alpine Heliport,49.8636,-119.5680
ZNA,CAC8,Nanaimo Harbour Water Aerodrome,49.1698,-123.9338
YZZ,CAD4,Trail Regional Airport,49.0556,-117.6090
YMB,CAD5,Merritt Airport,50.1225,-120.7454
YHH,CAE3,Campbell River Seaplane Base,50.0500,-125.2500
YWS,CAE5,Whistler/Green Lake Water Aerodrome,50.1436,-122.9490
YBF,CAE9,Bamfield Seaplane Base,48.8360,-125.1375
YIG,CAF6,Big Bay Seaplane Base,50.3923,-125.1372
CJH,CAG3,Chilko Lake (Tsylos Park Lodge) Airport,51.6258,-124.1445
YPT,CAG8,Pender Harbour Seaplane Base,49.6238,-124.0249
ZOF,CAH2,Ocean Falls Seaplane Base,52.3667,-127.7170
YCA,CAH3,Courtenay Airpark,49.6792,-124.9806
CFQ,CAJ3,Creston Valley Regional Airport - Art Sutcliffe Field,49.0369,-116.4980
YAA,CAJ4,Anahim Lake Airport,52.4515,-125.3038
DGF,CAL3,Douglas Lake Airport,50.1655,-120.1713
JHL,CAL4,Fort MacKay/Albian Aerodrome,57.2239,-111.4190
ZTS,CAL9,Tahsis Seaplane Base,49.9200,-126.6550
DUQ,CAM3,Duncan Airport,48.7545,-123.7097
YHS,CAP3,Sechelt-Gibsons Airport,49.4606,-123.7190
YKK,CAP7,Kitkatla Seaplane Base,53.8000,-130.4330
ZQS,CAQ6,Queen Charlotte City Seaplane Base,53.2528,-132.0742
WPL,CAQ8,Powell Lake Seaplane Base,49.8873,-124.5337
XQU,CAT4,Qualicum Beach Airport,49.3375,-124.3931
YMP,CAT5,Port McNeill Airport,50.5735,-127.0277
YRN,CAU8,Rivers Inlet Seaplane Base,51.6840,-127.2640
YTG,CAV5,Sullivan Bay Seaplane Base,50.8854,-126.8311
YMU,CAV7,Mansons Landing Seaplane Base,50.0714,-124.9836
YAV,CAW7,Mayne Island Seaplane Base,48.8522,-123.3020
YSX,CAW8,Bella Bella/Shearwater Seaplane Base,52.1500,-128.0830
YGG,CAX6,Ganges Seaplane Base,48.8545,-123.4969
YTB,CAY4,Hartley Bay Seaplane Base,53.4167,-129.2500
YZA,CAZ5,Cache Creek-Ashcroft Regional Airport,50.7753,-121.3213
ZEL,CBBC,Bella Bella (Campbell Island) Airport,52.1850,-128.1570
CBC,CBC,Cherrabun Airport,-18.9178,125.5378
YPB,CBS8,Alberni Valley Regional Airport,49.3219,-124.9310
YBO,CBW4,Bob Quinn Lake Airport,56.9667,-130.2500
TNS,CBX5,Tungsten (Cantung) Airport,61.9569,-128.2030
TUX,CBX7,Tumbler Ridge Airport,55.0250,-120.9350
YWM,CCA6,Williams Harbour Airport,52.5674,-55.7849
YSO,CCD4,Postville Airport,54.9105,-59.7851
YBI,CCE4,Black Tickle Airport,53.4698,-55.7875
YHG,CCH4,Charlottetown Airport,52.7658,-56.1124
YFX,CCK4,St. Lewis (Fox Harbour) Airport,52.3728,-55.6739
YHA,CCP4,Port Hope Simpson Airport,52.5281,-56.2861
YRG,CCZ2,Rigolet Airport,54.1797,-58.4575
KGN,CD-0037,Kasongo-Lunda Airport,-6.4680,16.8050
DVK,CDK2,Diavik Airport,64.5114,-110.2890
JOJ,CDL7,Doris Lake,68.1253,-106.5853
ZFW,CEB5,Fairview Airport,56.0814,-118.4350
YJP,CEC4,Jasper-Hinton Airport,53.3192,-117.7530
YLE,CEM3,Whatì Airport,63.1317,-117.2460
YDC,CER3,Drayton Valley Industrial Airport,53.2658,-114.9600
NML,CER4,Fort McMurray / Mildred Lake Airport,57.0556,-111.5740
CFM,CET2,Conklin (Leismer) Airport,55.6953,-111.2790
KWD,CF-0012,Kavadja Airport,7.9649,23.5260
GSL,CFA7,Taltheilei Narrows Airport,62.5981,-111.5430
XMP,CFC4,Macmillan Pass Airport,63.1811,-130.2020
DAS,CFF4,Great Bear Lake Airport,66.7031,-119.7168
YFI,CFG6,Fort Mackay / Firebag,57.2758,-110.9767
YOE,CFM4,Donnelly Airport,55.7094,-117.0940
TIL,CFQ4,Cheadle Airport,51.0575,-113.6240
OKG,CG-OKG,Okoyo Airport,-1.4483,15.0733
CGA,CGA,Craig Seaplane Base,55.4788,-133.1480
CGG,CGG,Casiguran Airport,16.1941,122.0651
GHK,CGK2,Gahcho Kue,63.4352,-109.1448
CHP,CHP,Circle Hot Springs Airport,65.4855,-144.6110
LRQ,CJC8,Laurie River Airport,56.2486,-101.3040
YDJ,CJL2,Hatchet Lake Airport,58.6625,-103.5380
YDU,CJL8,Kasba Lake Airport,60.2919,-102.5020
YFL,CJN8,Fort Reliance Seaplane Base,62.7000,-109.1670
XCL,CJS3,Cluff Lake Airport,58.3911,-109.5160
YKE,CJT3,Knee Lake Airport,54.9153,-94.7981
SUR,CJV7,Summer Beaver Airport,52.7086,-88.5419
CKD,CJX,Crooked Creek Airport,61.8703,-158.1376
YTT,CJY3,Tisdale Airport,52.8367,-104.0670
YAX,CKB6,Wapekeka Airport,53.8492,-89.5794
WNN,CKL3,Wunnumin Lake Airport,52.8939,-89.2892
YBS,CKM8,Opapimiskan Lake Airport,52.6067,-90.3769
YNO,CKQ3,North Spirit Lake Airport,52.4900,-92.9711
CKR,CKR,Crane Island Airstrip,48.5978,-122.9979
CKU,CKU,Cordova Municipal Airport,60.5439,-145.7270
YDW,CKV4,North of Sixty Airport,60.3157,-103.1313
CKX,CKX,Chicken Airport,64.0665,-141.9513
CMT,CMT,New Cametá Airport,-2.2468,-49.5600
CMZ,CMZ,Caia Airport,-17.8331,35.3341
ZKL,CN-0051,Zigong Fengming Airport,29.3765,104.6258
BZX,ZUBZ,Bazhong Enyang Airport,31.7384,106.6449
DFA,CN-0073,Shangluo Airport,33.7085,110.2493
HSC,ZGSG,Shaoguan Danxia Airport,24.9786,113.4210
JGS,ZSGS,Jinggangshan Airport,26.8569,114.7370
HNG,ZLHN,Hainanzhou Gonghe Airport,36.3367,100.4800
JNH,ZSJX,Jiaxing Nanhu Airport,30.6981,120.6631
DWS,CN-0157,Morin Dawa Banner Airport,48.3875,124.4313
LCT,CN-0177,Shijiazhuang Luancheng Airport,37.9130,114.5917
WHN,CN-0178,Wuhan Hannan Municipal Airport,30.2552,114.0628
PFA,CN-0193,Harbin Pingfang Airport,45.5989,126.6581
PNJ,CN-0217,Penglai Shahekou Airport,37.8047,120.8095
CBZ,CN-0218,Binzhou Dagao General Aviation Airport,37.6106,117.8857
DDR,ZUDR,Shigatse Tingri Airport,28.6046,86.7980
HQL,ZWTK,Tashikuergan Hongqilafu Airport,37.6613,75.2889
HEW,CN-0238,Dongyang Hengdian General Airport,29.1226,120.2429
JDE,CN-0253,Jiande Qiandaohu General Airport,29.3609,119.1808
HLJ,CN-0268,Zhaodong Beidahuang General Airport,46.1278,125.7735
TYC,CN-0300,Taiyuan Yaocheng Airport,37.5031,112.4241
WRH,CN-0329,Wuerhe Airport,46.0176,85.6574
JRJ,ZSRJ,Ganzhou Ruijin Airport,25.9602,116.0770
APJ,ZUPL,Ali Pulan Airport,30.3979,81.1332
ZFL,ZWZS,Zhaosu Tianma Airport,43.0885,81.2230
YEH,CN-0362,Yinchuan Yueyahu Airport,38.5881,106.5398
LCS,CN-0384,Longchuan Guangsong Airport,24.2665,97.9048
LFH,CN-0385,Lanping Fenghua General Airport,26.6452,99.5442
ZGN,CN-0412,Zhongshan Ferry Port,22.5193,113.3613
BZJ,ZSBO,Bozhou Airport (under construction),33.5608,115.9119
BKV,CN-0414,Bailing Airport,41.6569,110.3125
HJB,ZWHJ,Hejing Bayinbuluke Airport,42.9764,83.9955
OTQ,CN-0416,Otog Front Banner Oljoq Airport,38.1712,107.3905
JBK,ZWQT,Qitai Jiangbulake Airport,44.1661,89.5501
ZAT,ZPZT,Zhaotong Zhaoyang Airport （Not fully opened),27.2058,103.6915
LIJ,ZSLI,Lishui Airport,28.3727,119.8390
YHJ,CN-0423,Nanchang Yaohu Airport,28.7010,116.1077
OTO,CN-0427,Otog Banner Wulan Airport,39.0314,107.9889
NAY,ZBNY,Beijing Nanyuan Airport,39.7822,116.3863
BFY,ZSBA,Bengbu Tenghu Airport,33.1663,117.0583
XBE,CNE3,Bearskin Lake Airport,53.9656,-91.0272
YNP,CNH2,Natuashish Airport,55.9139,-61.1844
YWR,CNJ8,White River Seaplane Base,48.6269,-85.2233
YPD,CNK4,Parry Sound Area Municipal Airport,45.2575,-79.8297
XBR,CNL3,Brockville - Thousand Islands Regional Tackaberry Airport,44.6394,-75.7503
KIF,CNM5,Kingfisher Lake Airport,53.0125,-89.8553
LCR,CO-LCR,Virgilio Barco Vargas (La Chorrera) Airport,-1.4564,-72.8011
YEB,CPF2,Bar River Airport,46.4212,-84.0965
CPI,CPI,Cape Orford Airport,-5.4483,152.0819
YSI,CPS9,Parry Sound/Frying Pan Island-Sans Souci Seaplane Base,45.1733,-80.1375
KEW,CPV8,Keewaywin Airport,52.9911,-92.8364
ACO,CR-0006,Cóbano Airport,9.6934,-85.0912
KFM,CRL4,Kirby Lake Airport,55.3556,-110.6370
YSA,CSB2,Sable Island Airport.,43.9282,-59.9490
YLS,CSH4,Lebel-sur-Quevillon Airport,49.0303,-77.0172
YNX,CSK6,Snap Lake Airport,63.5936,-110.9060
SSQ,CSR8,La Sarre Airport,48.9172,-79.1786
YKU,CSU2,Chisasibi Airport,53.8056,-78.9169
ZTB,CTB6,Tête-à-la-Baleine Airport,50.6744,-59.3836
ZKG,CTK6,Kégashka Airport,50.1958,-61.2658
YWQ,CTM3,Chute-Des-Passes/Lac Margane Seaplane Base,49.9434,-71.1380
CTP,CTP,Carutapera Airport,-1.2254,-46.0191
YAU,CTP9,Donaldson Airport,61.6622,-73.3214
ZGS,CTT5,La Romaine Airport,50.2596,-60.6744
YFG,CTU2,Fontanges Airport,54.5539,-71.1733
ZLT,CTU5,La Tabatière Airport,50.8308,-58.9756
CUJ,CUJ,Culion Airport,11.8553,119.9378
CVL,CVL,Cape Vogel Airport,-9.6700,150.0197
CXC,CXC,Chitina Airport,61.5829,-144.4270
YAB,CYAB,Arctic Bay Airport,73.0061,-85.0462
YAC,CYAC,Cat Lake Airport,51.7272,-91.8244
YAR,CYAD,La Grande-3 Airport,53.5717,-76.1964
YAG,CYAG,Fort Frances Municipal Airport,48.6557,-93.4435
YAH,CYAH,La Grande-4 Airport,53.7547,-73.6753
YAL,CYAL,Alert Bay Airport,50.5822,-126.9160
YAM,CYAM,Sault Ste Marie Airport,46.4832,-84.5085
XKS,CYAQ,Kasabonika Airport,53.5247,-88.6428
YKG,CYAS,Kangirsuk Airport,60.0272,-69.9992
YAT,CYAT,Attawapiskat Airport,52.9275,-82.4319
YAY,CYAY,St. Anthony Airport,51.3919,-56.0832
YAZ,CYAZ,Tofino / Long Beach Airport,49.0798,-125.7756
YBA,CYBA,Banff Airport,51.2082,-115.5406
YBB,CYBB,Kugaaruk Airport,68.5357,-89.8055
YBC,CYBC,Baie-Comeau Airport,49.1325,-68.2044
QBC,CYBD,Bella Coola Airport,52.3875,-126.5960
YBE,CYBE,Uranium City Airport,59.5614,-108.4810
YBY,CYBF,Bonnyville Airport,54.3042,-110.7440
YBG,CYBG,Saguenay-Bagotville Airport,48.3301,-70.9920
YBK,CYBK,Baker Lake Airport,64.2989,-96.0778
YBL,CYBL,Campbell River Airport,49.9508,-125.2710
XTL,CYBQ,Tadoule Lake Airport,58.7063,-98.5111
YBR,CYBR,Brandon Municipal Airport,49.9100,-99.9519
YBT,CYBT,Brochet Airport,57.8894,-101.6790
YBV,CYBV,Berens River Airport,52.3589,-97.0183
YBX,CYBX,Lourdes-de-Blanc-Sablon Airport,51.4436,-57.1853
YRF,CYCA,Cartwright Airport,53.6825,-57.0423
YCB,CYCB,Cambridge Bay Airport,69.1081,-105.1380
YCC,CYCC,Cornwall Regional Airport,45.0926,-74.5677
YCD,CYCD,Nanaimo Airport,49.0550,-123.8699
YCE,CYCE,Centralia / James T. Field Memorial Aerodrome,43.2856,-81.5083
YCG,CYCG,Castlegar/West Kootenay Regional Airport,49.2964,-117.6320
YCH,CYCH,Miramichi Airport,47.0078,-65.4492
XCM,CYCK,Chatham Kent Airport,42.3064,-82.0819
YCL,CYCL,Charlo Airport,47.9908,-66.3303
YCN,CYCN,Cochrane Airport,49.1056,-81.0136
YCO,CYCO,Kugluktuk Airport,67.8164,-115.1431
YCQ,CYCQ,Chetwynd Airport,55.6872,-121.6270
YCR,CYCR,Cross Lake (Charlie Sinclair Memorial) Airport,54.6098,-97.7624
YCS,CYCS,Chesterfield Inlet Airport,63.3469,-90.7311
YCT,CYCT,Coronation Airport,52.0750,-111.4450
YCW,CYCW,Chilliwack Airport,49.1532,-121.9393
YCY,CYCY,Clyde River Airport,70.4861,-68.5167
YCZ,CYCZ,Fairmont Hot Springs Airport,50.3311,-115.8737
YDA,CYDA,Dawson City Airport,64.0431,-139.1280
YDB,CYDB,Burwash Airport,61.3711,-139.0410
YDF,CYDF,Deer Lake Airport,49.2082,-57.3961
YDL,CYDL,Dease Lake Airport,58.4222,-130.0320
XRR,CYDM,Ross River Airport,61.9706,-132.4230
YDN,CYDN,Dauphin Barker Airport,51.1008,-100.0520
YDO,CYDO,Dolbeau-Saint-Felicien Airport,48.7785,-72.3750
YDP,CYDP,Nain Airport,56.5508,-61.6822
YDQ,CYDQ,Dawson Creek Airport,55.7412,-120.1833
YEG,CYEG,Edmonton International Airport,53.3097,-113.5800
YEK,CYEK,Arviat Airport,61.0942,-94.0708
YEL,CYEL,Elliot Lake Municipal Airport,46.3514,-82.5614
YEM,CYEM,Manitoulin East Municipal Airport,45.8424,-81.8576
YEN,CYEN,Estevan Airport,49.2103,-102.9660
YER,CYER,Fort Severn Airport,56.0189,-87.6761
YET,CYET,Edson Airport,53.5789,-116.4650
YEU,CYEU,Eureka Airport,79.9947,-85.8142
YEV,CYEV,Inuvik Mike Zubko Airport,68.3042,-133.4830
YEY,CYEY,Amos/Magny Airport,48.5639,-78.2497
YFA,CYFA,Fort Albany Airport,52.2035,-81.6952
YFB,CYFB,Iqaluit Airport,63.7564,-68.5558
YFC,CYFC,Fredericton International Airport,45.8687,-66.5299
YFE,CYFE,Forestville Airport,48.7461,-69.0972
YFH,CYFH,Fort Hope Airport,51.5619,-87.9078
YTM,CYFJ,Mont-Tremblant International Airport,46.4094,-74.7800
YFO,CYFO,Flin Flon Airport,54.6781,-101.6820
YFR,CYFR,Fort Resolution Airport,61.1808,-113.6900
YFS,CYFS,Fort Simpson Airport,61.7602,-121.2370
YMN,CYFT,Makkovik Airport,55.0773,-59.1879
YGB,CYGB,Texada Gillies Bay Airport,49.6943,-124.5181
YGH,CYGH,Fort Good Hope Airport,66.2407,-128.6478
YGK,CYGK,Kingston Norman Rogers Airport,44.2253,-76.5969
YGL,CYGL,La Grande Rivière Airport,53.6253,-77.7042
YGM,CYGM,Gimli Industrial Park Airport,50.6281,-97.0433
YGO,CYGO,Gods Lake Narrows Airport,54.5577,-94.4901
YGP,CYGP,Michel-Pouliot Gaspé Airport,48.7749,-64.4819
YGQ,CYGQ,Geraldton Greenstone Regional Airport,49.7783,-86.9394
YGR,CYGR,Îles-de-la-Madeleine Airport,47.4252,-61.7786
YGT,CYGT,Igloolik Airport,69.3647,-81.8161
YGV,CYGV,Havre-Saint-Pierre Airport,50.2819,-63.6114
YGW,CYGW,Kuujjuarapik Airport,55.2819,-77.7653
YGX,CYGX,Gillam Airport,56.3571,-94.7115
YGZ,CYGZ,Grise Fiord Airport,76.4258,-82.9086
YQC,CYHA,Quaqtaq Airport,61.0464,-69.6178
YHB,CYHB,Hudson Bay Airport,52.8167,-102.3110
CXH,CYHC,Vancouver Harbour Water Aerodrome,49.2913,-123.1172
YHD,CYHD,Dryden Regional Airport,49.8317,-92.7442
YHE,CYHE,Hope Airport / FVRD Regional Airpark,49.3689,-121.4950
YHF,CYHF,Hearst René Fontaine Municipal Airport,49.7142,-83.6861
YNS,CYHH,Nemiscau Airport,51.6911,-76.1356
YHI,CYHI,Ulukhaktok Holman Airport,70.7628,-117.8060
YHK,CYHK,Gjoa Haven Airport,68.6356,-95.8497
YHM,CYHM,John C. Munro Hamilton International Airport,43.1735,-79.9312
YHN,CYHN,Hornepayne Municipal Airport,49.1931,-84.7589
YHO,CYHO,Hopedale Airport,55.4488,-60.2281
YHP,CYHP,Poplar Hill Airport,52.1133,-94.2556
YHR,CYHR,Chevery Airport,50.4683,-59.6378
YHT,CYHT,Haines Junction Airport,60.7892,-137.5460
YHU,CYHU,Montréal / Saint-Hubert Metropolitan Airport,45.5175,-73.4169
YHY,CYHY,Hay River / Merlyn Carter Airport,60.8397,-115.7830
YHZ,CYHZ,Halifax / Stanfield International Airport,44.8808,-63.5086
YIB,CYIB,Atikokan Municipal Airport,48.7739,-91.6386
YDG,CYID,Digby / Annapolis Regional Airport,44.5458,-65.7854
YIF,CYIF,St Augustin Airport,51.2117,-58.6583
YIK,CYIK,Ivujivik Airport,62.4173,-77.9253
YIO,CYIO,Pond Inlet Airport,72.6895,-77.9689
YIV,CYIV,Island Lake Airport,53.8572,-94.6536
YJA,CYJA,Jasper Airport,52.9964,-118.0602
YJF,CYJF,Fort Liard Airport,60.2358,-123.4690
YJN,CYJN,St Jean Airport,45.2944,-73.2811
YJT,CYJT,Stephenville Dymond International Airport,48.5434,-58.5529
YKA,CYKA,Kamloops John Moose Fulton Field Regional Airport,50.7030,-120.4486
YKC,CYKC,Collins Bay Airport,58.2361,-103.6780
LAK,CYKD,Aklavik/Freddie Carmichael Airport,68.2233,-135.0060
YKF,CYKF,Region of Waterloo International Airport,43.4608,-80.3786
YWB,CYKG,Kangiqsujuaq (Wakeham Bay) Airport,61.5886,-71.9294
YKJ,CYKJ,Key Lake Airport,57.2561,-105.6180
YKL,CYKL,Schefferville Airport,54.8053,-66.8053
YKD,CYKM,Kincardine Municipal Airport,44.2014,-81.6067
AKV,CYKO,Akulivik Airport,60.8186,-78.1486
YOG,CYKP,Ogoki Post Airport,51.6586,-85.9017
YKQ,CYKQ,Waskaganish Airport,51.4733,-78.7583
YKX,CYKX,Kirkland Lake Airport,48.2103,-79.9814
YKY,CYKY,Kindersley Airport,51.5175,-109.1810
YPJ,CYLA,Aupaluk Airport,59.2967,-69.5997
YLB,CYLB,Lac La Biche Airport,54.7703,-112.0320
YLC,CYLC,Kimmirut Airport,62.8483,-69.8779
YLD,CYLD,Chapleau Airport,47.8200,-83.3467
YLH,CYLH,Lansdowne House Airport,52.1956,-87.9342
YLJ,CYLJ,Meadow Lake Airport,54.1253,-108.5230
YSG,CYLK,Lutselk'e Airport,62.4178,-110.6828
YLL,CYLL,Lloydminster Airport,53.3092,-110.0730
YLQ,CYLQ,La Tuque Airport,47.4097,-72.7889
YLR,CYLR,Leaf Rapids Airport,56.5133,-99.9853
YLK,CYLS,Barrie-Lake Simcoe Regional Airport,44.4851,-79.5547
YLT,CYLT,Alert Airport,82.5173,-62.2830
XGR,CYLU,Kangiqsualujjuaq (Georges River) Airport,58.7114,-65.9928
YLW,CYLW,Kelowna International Airport,49.9561,-119.3780
CYM,CYM,Chatham Seaplane Base,57.5149,-134.9460
YMA,CYMA,Mayo Airport,63.6164,-135.8680
YME,CYME,Matane Airport,48.8569,-67.4533
YMG,CYMG,Manitouwadge Airport,49.0839,-85.8606
YMH,CYMH,Mary's Harbour Airport,52.3028,-55.8474
YMJ,CYMJ,Moose Jaw Air Vice Marshal C. M. McEwen Airport,50.3303,-105.5590
YML,CYML,Charlevoix Airport,47.5975,-70.2239
YMM,CYMM,Fort McMurray International Airport,56.6533,-111.2220
YMO,CYMO,Moosonee Airport,51.2911,-80.6078
YMT,CYMT,Chapais Airport,49.7719,-74.5281
YUD,CYMU,Umiujaq Airport,56.5361,-76.5183
YMW,CYMW,Maniwaki Airport,46.2728,-75.9906
YMX,CYMX,Montreal Mirabel International Airport,45.6795,-74.0387
YNA,CYNA,Natashquan Airport,50.1901,-61.7890
YNC,CYNC,Wemindji Airport,53.0106,-78.8311
YND,CYND,Ottawa / Gatineau Airport,45.5217,-75.5636
YNE,CYNE,Norway House Airport,53.9583,-97.8442
YNH,CYNH,Hudson's Hope Airport,56.0351,-121.9783
YLY,CYNJ,Langley Airport,49.1008,-122.6310
YNL,CYNL,Points North Landing Airport,58.2767,-104.0820
YNM,CYNM,Matagami Airport,49.7617,-77.8028
HZP,CYNR,Fort Mackay / Horizon Airport,57.3817,-111.7010
YOA,CYOA,Ekati Airport,64.6989,-110.6150
YOC,CYOC,Old Crow Airport,67.5706,-139.8390
YOD,CYOD,CFB Cold Lake,54.4050,-110.2790
YOH,CYOH,Oxford House Airport,54.9333,-95.2789
YOJ,CYOJ,High Level Airport,58.6214,-117.1650
YOO,CYOO,Oshawa Executive Airport,43.9228,-78.8950
YOP,CYOP,Rainbow Lake Airport,58.4914,-119.4080
YOS,CYOS,Owen Sound / Billy Bishop Regional Airport,44.5903,-80.8375
YOW,CYOW,Ottawa Macdonald-Cartier International Airport,45.3225,-75.6692
YPA,CYPA,Prince Albert Glass Field,53.2142,-105.6730
YPC,CYPC,Paulatuk (Nora Aliqatchialuk Ruben) Airport,69.3608,-124.0755
YPS,CYPD,Port Hawkesbury Airport,45.6567,-61.3681
YPE,CYPE,Peace River Airport,56.2269,-117.4470
YPG,CYPG,Portage-la-Prairie / Southport Airport,49.9031,-98.2738
YPH,CYPH,Inukjuak Airport,58.4719,-78.0769
YPL,CYPL,Pickle Lake Airport,51.4464,-90.2142
YPM,CYPM,Pikangikum Airport,51.8197,-93.9733
YPN,CYPN,Port-Menier Airport,49.8364,-64.2886
YPO,CYPO,Peawanuck Airport,54.9879,-85.4426
YPQ,CYPQ,Peterborough Regional Airport,44.2323,-78.3621
YPR,CYPR,Prince Rupert Airport,54.2861,-130.4450
YPW,CYPW,Powell River Airport,49.8342,-124.5000
YPX,CYPX,Puvirnituq Airport,60.0506,-77.2869
YPY,CYPY,Fort Chipewyan Airport,58.7672,-111.1170
YPZ,CYPZ,Burns Lake Airport,54.3764,-125.9510
YQA,CYQA,Muskoka Airport,44.9754,-79.3065
YQB,CYQB,Quebec Jean Lesage International Airport,46.7911,-71.3933
YQD,CYQD,The Pas Airport,53.9714,-101.0910
YQF,CYQF,Red Deer Regional Airport,52.1822,-113.8940
YQG,CYQG,Windsor International Airport,42.2756,-82.9556
YQH,CYQH,Watson Lake Airport,60.1168,-128.8220
YQI,CYQI,Yarmouth Airport,43.8269,-66.0881
YQK,CYQK,Kenora Airport,49.7883,-94.3631
YQL,CYQL,Lethbridge County Airport,49.6303,-112.8000
YQM,CYQM,Greater Moncton Roméo LeBlanc International Airport,46.1132,-64.6772
YQN,CYQN,Nakina Airport,50.1828,-86.6964
YQQ,CYQQ,Comox Valley International Airport / CFB Comox,49.7108,-124.8870
YQR,CYQR,Regina International Airport,50.4319,-104.6609
YQS,CYQS,St Thomas Municipal Airport,42.7700,-81.1108
YQT,CYQT,Thunder Bay International Airport,48.3719,-89.3239
YQU,CYQU,Grande Prairie Airport,55.1797,-118.8850
YQV,CYQV,Yorkton Municipal Airport,51.2647,-102.4620
YQW,CYQW,North Battleford Airport,52.7694,-108.2437
YQX,CYQX,Gander International Airport,48.9363,-54.5677
YQY,CYQY,Sydney / J.A. Douglas McCurdy Airport,46.1611,-60.0498
YQZ,CYQZ,Quesnel Airport,53.0261,-122.5100
YRA,CYRA,Rae Lakes Airport,64.1161,-117.3100
YRB,CYRB,Resolute Bay Airport,74.7169,-94.9694
YRI,CYRI,Rivière-du-Loup Airport,47.7644,-69.5847
YRJ,CYRJ,Roberval Airport,48.5197,-72.2657
YRL,CYRL,Red Lake Airport,51.0669,-93.7931
YRM,CYRM,Rocky Mountain House Airport,52.4297,-114.9040
YRO,CYRO,Ottawa / Rockcliffe Airport,45.4605,-75.6440
YRQ,CYRQ,Trois-Rivières Airport,46.3528,-72.6794
YRS,CYRS,Red Sucker Lake Airport,54.1672,-93.5572
YRT,CYRT,Rankin Inlet Airport,62.8114,-92.1158
YRV,CYRV,Revelstoke Airport,50.9622,-118.1843
YSB,CYSB,Sudbury Airport,46.6250,-80.7989
YSC,CYSC,Sherbrooke Airport,45.4386,-71.6914
YSD,CYSD,Canadian Forces Base Suffield Heliport,50.2764,-111.1802
YSE,CYSE,Squamish Airport,49.7817,-123.1620
YSF,CYSF,Stony Rapids Airport,59.2503,-105.8410
YSH,CYSH,Smiths Falls-Montague (Russ Beach) Airport,44.9458,-75.9406
YSJ,CYSJ,Saint John Airport,45.3161,-65.8903
YSK,CYSK,Sanikiluaq Airport,56.5369,-79.2502
YSL,CYSL,Saint-Léonard Airport,47.1571,-67.8362
YSM,CYSM,Fort Smith Airport,60.0203,-111.9620
YCM,CYSN,Niagara District Airport,43.1916,-79.1717
YSP,CYSP,Marathon Airport,48.7553,-86.3444
YST,CYST,St. Theresa Point Airport,53.8453,-94.8520
YSU,CYSU,Summerside Airport,46.4406,-63.8336
YSY,CYSY,Sachs Harbour (David Nasogaluak Jr. Saaryuaq) Airport,71.9939,-125.2430
YTA,CYTA,Pembroke Airport,45.8644,-77.2517
YTE,CYTE,Cape Dorset Airport,64.2300,-76.5267
YTF,CYTF,Alma Airport,48.5089,-71.6419
YTH,CYTH,Thompson Airport,55.8011,-97.8642
YTL,CYTL,Big Trout Lake Airport,53.8178,-89.8969
YTQ,CYTQ,Tasiujaq Airport,58.6678,-69.9558
YTR,CYTR,CFB Trenton,44.1189,-77.5281
YTS,CYTS,Timmins/Victor M. Power,48.5697,-81.3767
YTZ,CYTZ,Billy Bishop Toronto City Airport,43.6279,-79.3955
YUB,CYUB,Tuktoyaktuk / James Gruben Airport,69.4333,-133.0260
YUL,CYUL,Montreal / Pierre Elliott Trudeau International Airport,45.4678,-73.7423
YUT,CYUT,Naujaat Airport,66.5210,-86.2252
YUX,CYUX,Hall Beach Airport,68.7761,-81.2425
YUY,CYUY,Rouyn Noranda Airport,48.2061,-78.8356
YVB,CYVB,Bonaventure Airport,48.0711,-65.4603
YVC,CYVC,La Ronge Airport,55.1514,-105.2620
YVG,CYVG,Vermilion Airport,53.3577,-110.8274
YVE,CYVK,Vernon Regional Airport,50.2462,-119.3310
YCK,CYVL,Tommy Kochon Airport,67.0202,-126.1284
YVM,CYVM,Qikiqtarjuaq Airport,67.5466,-64.0314
YVO,CYVO,Val-d'Or Airport,48.0533,-77.7828
YVP,CYVP,Kuujjuaq Airport,58.0961,-68.4269
YVQ,CYVQ,Norman Wells Airport,65.2816,-126.7980
YVR,CYVR,Vancouver International Airport,49.1939,-123.1840
YVT,CYVT,Buffalo Narrows Airport,55.8419,-108.4180
YVV,CYVV,Wiarton Airport,44.7458,-81.1072
YVZ,CYVZ,Deer Lake Airport,52.6556,-94.0612
YWA,CYWA,Petawawa Heliport,45.9522,-77.3192
YFJ,CYWE,Wekweètì Airport,64.1908,-114.0770
YWG,CYWG,Winnipeg / James Armstrong Richardson International Airport,49.9100,-97.2399
YWH,CYWH,Victoria Harbour Seaplane Base,48.4238,-123.3720
YWJ,CYWJ,Déline Airport,65.2111,-123.4360
YWK,CYWK,Wabush Airport,52.9219,-66.8644
YWL,CYWL,Williams Lake Airport,52.1831,-122.0540
YWP,CYWP,Webequie Airport,52.9594,-87.3749
YWY,CYWY,Wrigley Airport,63.2094,-123.4370
YXC,CYXC,Cranbrook/Canadian Rockies International Airport,49.6108,-115.7820
YXE,CYXE,Saskatoon John G. Diefenbaker International Airport,52.1707,-106.7008
YXH,CYXH,Medicine Hat Regional Airport,50.0189,-110.7210
YXJ,CYXJ,Fort St John / North Peace Regional Airport,56.2381,-120.7400
YXK,CYXK,Rimouski Airport,48.4776,-68.4963
YXL,CYXL,Sioux Lookout Airport,50.1139,-91.9053
YXN,CYXN,Whale Cove Airport,62.2400,-92.5981
YXP,CYXP,Pangnirtung Airport,66.1449,-65.7136
YXQ,CYXQ,Beaver Creek Airport,62.4103,-140.8670
YXR,CYXR,Earlton (Timiskaming Regional) Airport,47.6974,-79.8473
YXS,CYXS,Prince George (International) Airport,53.8843,-122.6666
YXT,CYXT,Northwest Regional Airport Terrace-Kitimat,54.4685,-128.5760
YXU,CYXU,London International Airport,43.0328,-81.1490
YXX,CYXX,Abbotsford International Airport,49.0253,-122.3610
YXY,CYXY,Whitehorse / Erik Nielsen International Airport,60.7085,-135.0657
YXZ,CYXZ,Wawa Airport,47.9667,-84.7867
YYB,CYYB,North Bay Jack Garland Airport,46.3636,-79.4228
YYC,CYYC,Calgary International Airport,51.1188,-114.0099
YYD,CYYD,Smithers Airport,54.8247,-127.1830
YYE,CYYE,Fort Nelson Airport,58.8364,-122.5970
YYF,CYYF,Penticton Airport,49.4631,-119.6020
YYG,CYYG,Charlottetown Airport,46.2889,-63.1252
YYH,CYYH,Taloyoak Airport,69.5467,-93.5767
YYJ,CYYJ,Victoria International Airport,48.6472,-123.4278
YYL,CYYL,Lynn Lake Airport,56.8639,-101.0760
YYM,CYYM,Cowley Airport,49.6364,-114.0940
YYN,CYYN,Swift Current Airport,50.2919,-107.6910
YYQ,CYYQ,Churchill Airport,58.7392,-94.0650
YYR,CYYR,Goose Bay Airport,53.3192,-60.4258
YYT,CYYT,St. John's International Airport,47.6186,-52.7519
YYU,CYYU,Kapuskasing Airport,49.4116,-82.4696
YYW,CYYW,Armstrong Airport,50.2903,-88.9097
YYY,CYYY,Mont Joli Airport,48.6086,-68.2081
YYZ,CYYZ,Toronto Pearson International Airport,43.6759,-79.6294
YZE,CYZE,Gore Bay Manitoulin Airport,45.8853,-82.5678
YZF,CYZF,Yellowknife International Airport,62.4628,-114.4400
YZG,CYZG,Salluit Airport,62.1794,-75.6672
YZH,CYZH,Slave Lake Airport,55.2929,-114.7773
YZP,CYZP,Sandspit Airport,53.2543,-131.8140
YZR,CYZR,Chris Hadfield Airport,42.9994,-82.3089
YZS,CYZS,Coral Harbour Airport,64.1933,-83.3594
YZT,CYZT,Port Hardy Airport,50.6806,-127.3670
YZU,CYZU,Whitecourt Airport,54.1439,-115.7870
YZV,CYZV,Sept-Îles Airport,50.2233,-66.2656
YZW,CYZW,Teslin Airport,60.1728,-132.7430
YZX,CYZX,CFB Greenwood,44.9844,-64.9169
ZAC,CZAC,York Landing Airport,56.0894,-96.0892
YSN,CZAM,Shuswap Regional Airport,50.6828,-119.2290
YDT,CZBB,Boundary Bay Airport,49.0743,-123.0069
ILF,CZBD,Ilford Airport,56.0516,-95.6188
ZBF,CZBF,Bathurst Airport,47.6297,-65.7389
ZBM,CZBM,Bromont (Roland Désourdy) Airport,45.2908,-72.7414
KES,CZEE,Kelsey Airport,56.0375,-96.5097
ZEM,CZEM,Eastmain River Airport,52.2264,-78.5225
ZFA,CZFA,Faro Airport,62.2075,-133.3760
ZFD,CZFD,Fond-du-Lac Airport,59.3344,-107.1820
XPK,CZFG,Pukatawagan Airport,55.7492,-101.2660
ZFM,CZFM,Fort Mcpherson Airport,67.4070,-134.8602
ZFN,CZFN,Tulita Airport,64.9095,-125.5703
ZGF,CZGF,Grand Forks Airport,49.0156,-118.4310
ZGI,CZGI,Gods River Airport,54.8397,-94.0786
ZGR,CZGR,Little Grand Rapids Airport,52.0454,-95.4662
ZHP,CZHP,High Prairie Airport,55.3936,-116.4750
CZJ,CZJ,Corazón de Jesús Airport,9.4469,-78.5757
ZJG,CZJG,Jenpeg Airport,54.5189,-98.0461
ZJN,CZJN,Swan River Airport,52.1206,-101.2360
ZKE,CZKE,Kashechewan Airport,52.2825,-81.6778
YTD,CZLQ,Thicket Portage Airport,55.3189,-97.7078
MSA,CZMD,Muskrat Dam Airport,53.4414,-91.7628
ZMH,CZML,South Cariboo Region / 108 Mile Airport,51.7361,-121.3330
PIW,CZMN,Pikwitonei Airport,55.5889,-97.1642
ZMT,CZMT,Masset Airport,54.0275,-132.1250
CZN,CZN,Chisana Airport,62.0712,-142.0480
XPP,CZNG,Poplar River Airport,52.9965,-97.2742
CZO,CZO,Chistochina Airport,62.5635,-144.6690
ZPB,CZPB,Sachigo Lake Airport,53.8909,-92.1959
WPC,CZPC,Pincher Creek Airport,49.5204,-113.9970
ZPO,CZPO,Pinehouse Lake Airport,55.5281,-106.5820
ZRJ,CZRJ,Round Lake (Weagamow Lake) Airport,52.9436,-91.3128
ZSJ,CZSJ,Sandy Lake Airport,53.0642,-93.3444
XSI,CZSN,South Indian Lake Airport,56.7928,-98.9072
ZST,CZST,Stewart Airport,55.9354,-129.9824
ZSW,CZSW,Prince Rupert/Seal Cove Seaplane Base,54.3333,-130.2830
YDV,CZTA,Bloodvein River Airport,51.7846,-96.6923
ZTM,CZTM,Shamattawa Airport,55.8636,-92.0811
ZUC,CZUC,Ignace Municipal Airport,49.4282,-91.7204
ZUM,CZUM,Churchill Falls Airport,53.5619,-64.1064
XLB,CZWH,Lac Brochet Airport,58.6143,-101.4690
ZWL,CZWL,Wollaston Lake Airport,58.1069,-103.1720
IUA,D38,Canandaigua Airport,42.9089,-77.3252
DJN,D66,Delta Junction Airport,64.0499,-145.7227
MQV,DA14,Mostaganem Airport,35.9052,0.1445
BUJ,DAAD,Bou Saada Airport,35.3325,4.2064
BJA,DAAE,Soummam–Abane Ramdane Airport,36.7125,5.0699
ALG,DAAG,Houari Boumediene Airport,36.6939,3.2145
DJG,DAAJ,Tiska Djanet Airport,24.2854,9.4637
VVZ,DAAP,Illizi Takhamalt Airport,26.7235,8.6227
QSF,DAAS,Ain Arnat Airport,36.1785,5.3299
TMR,DAAT,Aguenar – Hadj Bey Akhamok Airport,22.8110,5.4508
GJL,DAAV,Jijel Ferhat Abbas Airport,36.7941,5.8737
MZW,DAAY,Mecheria Airport,33.5359,-0.2424
AAE,DABB,Annaba Rabah Bitat Airport,36.8268,7.8133
CZL,DABC,Mohamed Boudiaf International Airport,36.2760,6.6204
TEE,DABS,Cheikh Larbi Tébessi Airport,35.4316,8.1207
BLJ,DABT,Batna Mostefa Ben Boulaid Airport,35.7521,6.3086
DAF,DAF,Daup Airport,-4.7403,145.9515
HRM,DAFH,Hassi R'Mel Airport,32.9304,3.3115
DAH,DAH,Dathina Airport,13.8669,46.1335
DAO,DAO,Dabo Airport,-8.4319,147.8431
TID,DAOB,Abdelhafid Boussouf Bou Chekif Airport,35.3411,1.4631
TIN,DAOF,Tindouf Airport,27.7004,-8.1671
CFK,DAOI,Chlef Aboubakr Belkaid International Airport,36.2166,1.3411
TAF,DAOL,Oran Tafraoui Airport,35.5424,-0.5323
TLM,DAON,Zenata – Messali El Hadj Airport,35.0127,-1.4571
ORN,DAOO,Oran Es-Sénia (Ahmed Ben Bella) International Airport,35.6206,-0.6225
CBH,DAOR,Béchar Boudghene Ben Ali Lotfi Airport,31.6457,-2.2699
BFW,DAOS,Sidi Bel Abbes Airport,35.1718,-0.5933
MUW,DAOV,Ghriss Airport,35.2077,0.1471
EBH,DAOY,El Bayadh Airport,33.7217,1.0925
INF,DATG,In Guezzam Airport,19.5605,5.7493
BMW,DATM,Bordj Badji Mokhtar Airport,21.3778,0.9270
AZR,DAUA,Touat-Cheikh Sidi Mohamed Belkebir Airport,27.8376,-0.1864
BSK,DAUB,Biskra - Mohamed Khider Airport,34.7932,5.7389
ELG,DAUE,El Golea Airport,30.5807,2.8616
GHA,DAUG,Noumérat - Moufdi Zakaria Airport,32.3841,3.7941
HME,DAUH,Hassi Messaoud-Oued Irara Krim Belkacem Airport,31.6730,6.1404
INZ,DAUI,In Salah Airport,27.2510,2.5120
TGR,DAUK,Touggourt Sidi Madhi Airport,33.0678,6.0887
LOO,DAUL,Laghouat - Molay Ahmed Medeghri Airport,33.7644,2.9283
ELU,DAUO,Guemar Airport - مطار قمار بالوادي,33.5114,6.7768
TMX,DAUT,Timimoun Airport,29.2371,0.2760
OGX,DAUU,Ain Beida Airport,31.9172,5.4128
IAM,DAUZ,Zarzaitine - In Aménas Airport,28.0515,9.6429
COO,DBBB,Cotonou Cadjehoun International Airport,6.3572,2.3843
DJA,DBBD,Djougou Airport,9.6921,1.6378
KDC,DBBK,Kandi Airport,11.1448,2.9404
NAE,DBBN,Natitingou Airport,10.3770,1.3605
PKO,DBBP,Parakou Airport,9.3577,2.6097
SVF,DBBS,Savé Airport,8.0182,2.4646
DBK,DBK,Dutch Bay SPB,8.2730,79.7560
DBU,DBU,Dambulu Oya Tank Seaplane Base,7.8604,80.6304
DCK,DCK,Dahl Creek Airport,66.9433,-156.9050
DDM,DDM,Dodoima Airport,-8.1774,147.8094
DEQ,DEQ,Deqing Moganshan Airport,30.5043,120.1074
DEX,WAVD,Nop Goliat Dekai Airport,-4.8557,139.4820
XKY,DFCA,Kaya Airport,13.0774,-1.1003
OUG,DFCC,Ouahigouya Airport,13.6553,-2.3221
XDJ,DFCJ,Djibo Airport,14.1250,-1.6247
XLU,DFCL,Leo Airport,11.1000,-2.1000
PUP,DFCP,Po Airport,11.1791,-1.1485
XBO,DFEA,Boulsa Airport,12.6500,-0.5670
XBG,DFEB,Bogande Airport,12.9830,-0.1670
DIP,DFED,Diapaga Airport,12.0603,1.7846
DOR,DFEE,Dori Airport,14.0216,-0.0682
FNG,DFEF,Fada N'gourma Airport,12.0389,0.3628
XGG,DFEG,Gorom-Gorom Airport,14.4542,-0.2186
XKA,DFEL,Kantchari Airport,12.4640,1.4929
TMQ,DFEM,Tambao Airport,14.7909,0.0395
XPA,DFEP,Pama Airport,11.2500,0.7000
ARL,DFER,Arly Airport,11.5970,1.4830
XSE,DFES,Sebba Airport,13.4500,0.5170
TEG,DFET,Tenkodogo Airport,11.8011,-0.3714
XZA,DFEZ,Zabré Airport,11.1670,-0.6170
OUA,DFFD,Ouagadougou Thomas Sankara International Airport,12.3532,-1.5124
BNR,DFOB,Banfora Airport,10.6889,-4.7277
DGU,DFOD,Dedougou Airport,12.4590,-3.4900
XGA,DFOG,Gaoua Airport,10.3841,-3.1635
XNU,DFON,Nouna Airport,12.7500,-3.8670
BOY,DFOO,Bobo Dioulasso Airport,11.1601,-4.3310
TUQ,DFOT,Tougan Airport,13.0591,-3.0773
XDE,DFOU,Diebougou Airport,10.9500,-3.2500
XAR,DFOY,Aribinda Airport,14.2170,-0.8830
ACC,DGAA,Kotoka International Airport,5.6052,-0.1668
TML,DGLE,Yakubu Tali International Airport,9.5539,-0.8661
WZA,DGLW,Wa Airport,10.0827,-2.5077
DGM,DGM,Dandugama Seaplane Base,7.1079,79.8721
KMS,DGSI,Prempeh I International Airport,6.7146,-1.5908
NYI,DGSN,Sunyani Airport,7.3618,-2.3288
TKD,DGTK,Takoradi Airport,4.8961,-1.7748
DHB,DHB,Deer Harbor SPB,48.6167,-123.0028
DHG,DHG,Dalnegorsk Airport,44.5587,135.4900
DHL,DHL,Ad-Dali Airport,13.7385,44.7272
ABO,DIAO,Aboisso Airport,5.4619,-3.2347
ABJ,DIAP,Félix-Houphouët-Boigny International Airport,5.2614,-3.9263
OGO,DIAU,Abengourou Airport,6.7156,-3.4703
BXI,DIBI,Boundiali Airport,9.5406,-6.4698
BYK,DIBK,Bouaké Airport,7.7388,-5.0737
BQO,DIBN,Bouna Airport,9.2556,-3.0333
BDK,DIBU,Soko Airport,8.0172,-2.7619
DIM,DIDK,Dimbokro Airport,6.6517,-4.6406
DJO,DIDL,Daloa Airport,6.7928,-6.4732
GGN,DIGA,Gagnoa Airport,6.1029,-5.9868
GGO,DIGL,Guiglo Airport,6.5347,-7.5268
BBV,DIGN,Nero-Mer Airport,4.6434,-6.9240
HGO,DIKO,Korhogo Airport,9.3872,-5.5567
MJC,DIMN,Man Airport,7.2721,-7.5874
KEO,DIOD,Odienne Airport,9.5395,-7.5613
OFI,DIOF,Ouango Fitini Airport,9.6000,-4.0500
SEO,DISG,Séguéla Airport,7.9600,-6.6442
SPY,DISP,San Pedro Airport,4.7467,-6.6608
ZSS,DISS,Sassandra Airport,4.9289,-6.1332
TXU,DITB,Tabou Airport,4.4378,-7.3627
TOZ,DITM,Mahana Airport,8.2934,-7.6740
DIW,DIW,Mawella Lagoon Seaplane Base,5.9902,80.7331
ASK,DIYO,Yamoussoukro International Airport,6.9032,-5.3656
DLR,DLR,Dalnerechensk Airport,45.8799,133.7376
DIO,DM2,Diomede Heliport,65.7584,-168.9537
DKA,DNKT,Umaru Musa Yar'adua Airport,13.0078,7.6604
ABV,DNAA,Nnamdi Azikiwe International Airport,9.0068,7.2632
QUO,DNAI,Akwa Ibom International Airport,4.8725,8.0930
AKR,DNAK,Akure Airport,7.2467,5.3010
ABB,DNAS,Asaba International Airport,6.2042,6.6653
BCU,DNBC,Sir Abubakar Tafawa Balewa Bauchi State International Airport,10.4828,9.7440
BNI,DNBE,Benin Airport,6.3170,5.5995
CBQ,DNCA,Margaret Ekpo International Airport,4.9760,8.3472
ENU,DNEN,Akanu Ibiam International Airport,6.4737,7.5605
GMO,DNGO,Gombe Lawanti International Airport,10.2989,10.9000
IBA,DNIB,Ibadan Airport,7.3625,3.9783
ILR,DNIL,General Tunde Idiagbon International Airport,8.4402,4.4939
QOW,DNIM,Sam Mbakwe International Cargo Airport,5.4271,7.2060
JOS,DNJO,Yakubu Gowon Airport,9.6398,8.8691
KAD,DNKA,Kaduna International Airport,10.6960,7.3201
KAN,DNKN,Mallam Aminu Kano International Airport,12.0456,8.5236
MIU,DNMA,Maiduguri International Airport,11.8542,13.0807
MDI,DNMK,Makurdi Airport,7.7039,8.6139
LOS,DNMM,Murtala Muhammed International Airport,6.5774,3.3212
MXJ,DNMN,Minna Airport,9.6522,6.4623
PHC,DNPO,Port Harcourt International Airport,5.0155,6.9496
SKO,DNSO,Sadiq Abubakar III International Airport,12.9157,5.2075
QRW,DNSU,Warri Airport,5.5982,5.8187
YOL,DNYO,Yola Airport,9.2576,12.4304
ZAR,DNZA,Zaria Airport,11.1302,7.6858
DPT,DPT,Deputatskiy Airport,69.3925,139.8900
MFQ,DRRM,Maradi Airport,13.5025,7.1268
NIM,DRRN,Diori Hamani International Airport,13.4815,2.1836
THZ,DRRT,Tahoua Airport,14.8757,5.2654
AJY,DRZA,Mano Dayak International Airport,16.9660,8.0001
RLT,DRZL,Arlit Airport,18.7904,7.3660
ZND,DRZR,Zinder Airport,13.7790,8.9838
DSG,DSG,Dilasag Airport,16.4458,122.2068
TBJ,DTKA,Tabarka-Aïn Draham International Airport,36.9800,8.8769
MIR,DTMB,Monastir Habib Bourguiba International Airport,35.7581,10.7547
NBE,DTNH,Enfidha - Hammamet International Airport,36.0758,10.4386
TUN,DTTA,Tunis Carthage International Airport,36.8510,10.2272
GAF,DTTF,Gafsa Ksar International Airport,34.4220,8.8225
GAE,DTTG,Gabès Matmata International Airport,33.7337,9.9194
DJE,DTTJ,Djerba Zarzis International Airport,33.8737,10.7773
EBM,DTTR,El Borma Airport,31.7043,9.2546
SFA,DTTX,Sfax Thyna International Airport,34.7180,10.6910
TOE,DTTZ,Tozeur Nefta International Airport,33.9397,8.1106
DVD,DVD,Andavadoaka Airport,-22.0661,43.2596
DWO,DWO,Diyawanna Oya Seaplane Base,6.9066,79.9090
LRL,DXNG,Niamtougou International Airport,9.7667,1.0909
LFW,DXXX,Lomé–Tokoin International Airport,6.1656,1.2545
EAL,EAL,Elenak Airport,9.3193,166.8478
ANR,EBAW,Antwerp International Airport (Deurne),51.1907,4.4632
BRU,EBBR,Brussels Airport,50.9014,4.4844
CRL,EBCI,Brussels South Charleroi Airport,50.4620,4.4596
GNE,EBGT,Ghent/Industry Zone Heliport,51.0206,3.7303
KJK,EBKT,Kortrijk-Wevelgem International Airport,50.8189,3.2096
LGG,EBLG,Liège Airport,50.6386,5.4439
EBO,EBO,Ebon Airport,4.5982,168.7520
OST,EBOS,Ostend-Bruges International Airport,51.1998,2.8747
OBL,EBZR,Oostmalle Airfield,51.2691,4.7624
MZD,EC-MZD,Méndez Airport,-2.7333,-78.3167
EDA,EDA,Edna Bay Seaplane Base,55.9497,-133.6610
AOC,EDAC,Leipzig–Altenburg Airport,50.9819,12.5064
HDF,EDAH,Heringsdorf Airport,53.8787,14.1523
IES,EDAU,Riesa-Göhlis Airport,51.2936,13.3561
REB,EDAX,Müritz Airpark,53.3064,12.7522
CSO,EDBC,Cochstedt Airport,51.8564,11.4203
BBH,EDBH,Stralsund-Barth Airport,54.3383,12.7105
FNB,EDBN,Neubrandenburg Trollenhagen Airport,53.6022,13.3060
GTI,EDCG,Rügen Airport,54.3835,13.3255
KOQ,EDCK,Köthen Airport,51.7237,11.9488
PEF,EDCP,Peenemünde Airport,54.1578,13.7744
BER,EDDB,Berlin Brandenburg Airport,52.3617,13.5023
DRS,EDDC,Dresden Airport,51.1341,13.7678
ERF,EDDE,Erfurt-Weimar Airport,50.9783,10.9607
FRA,EDDF,Frankfurt Main Airport,50.0267,8.5584
FMO,EDDG,Münster Osnabrück Airport,52.1338,7.6885
HAM,EDDH,Hamburg Helmut Schmidt Airport,53.6304,9.9882
CGN,EDDK,Cologne Bonn Airport,50.8659,7.1427
DUS,EDDL,Düsseldorf Airport,51.2895,6.7668
MUC,EDDM,Munich Airport,48.3538,11.7861
NUE,EDDN,Nuremberg Airport,49.4987,11.0781
LEJ,EDDP,Leipzig/Halle Airport,51.4207,12.2327
SCN,EDDR,Saarbrücken Airport,49.2145,7.1097
STR,EDDS,Stuttgart Airport,48.6899,9.2220
HAJ,EDDV,Hannover Airport,52.4611,9.6851
BRE,EDDW,Bremen Airport,53.0468,8.7893
HHN,EDFH,Frankfurt-Hahn Airport,49.9464,7.2617
MHG,EDFM,Mannheim-City Airport,49.4731,8.5142
EIB,EDGE,Eisenach-Kindel Airport,50.9916,10.4797
ZOE,EDGL,Ludwigshafen Accident Hospital Heliport,49.4865,8.3892
SGE,EDGS,Siegerland Airport,50.7077,8.0830
IZE,EDHF,Itzehoe Hungriger Wolf Airfield,53.9920,9.5764
XFW,EDHI,Hamburg-Finkenwerder Airport,53.5353,9.8356
KEL,EDHK,Kiel-Holtenau Airport,54.3796,10.1453
LBC,EDHL,Lübeck Blankensee Airport,53.8054,10.7192
EUM,EDHN,Neumünster Airport,54.0794,9.9414
FMM,EDJA,Memmingen Allgau Airport,47.9881,10.2382
AAH,EDKA,Aachen-Merzbrück Airport,50.8231,6.1864
ESS,EDLE,Essen-Mülheim Airport,51.4023,6.9373
BFE,EDLI,Bielefeld Airport,51.9647,8.5444
MGL,EDLN,Mönchengladbach Airport,51.2303,6.5044
PAD,EDLP,Paderborn Lippstadt Airport,51.6125,8.6175
NRN,EDLV,Weeze (Niederrhein) Airport,51.6014,6.1412
DTM,EDLW,Dortmund Airport,51.5183,7.6122
AGB,EDMA,Augsburg Airport,48.4253,10.9317
OBF,EDMO,Oberpfaffenhofen Airport,48.0814,11.2831
RBM,EDMS,Straubing Airport,48.9008,12.5167
FDH,EDNY,Bodensee Airport Friedrichshafen,47.6713,9.5115
BYU,EDQD,Bayreuth Airport,49.9850,11.6400
URD,EDQE,Burg Feuerstein Airport,49.7942,11.1336
GHF,EDQG,Giebelstadt Airport,49.6481,9.9664
HOQ,EDQM,Hof-Plauen Airport,50.2885,11.8529
BBJ,EDRB,Bitburg Airport,49.9453,6.5650
ZQW,EDRZ,Zweibrücken Airport,49.2094,7.4006
FKB,EDSB,Karlsruhe Baden-Baden Airport,48.7794,8.0805
LHA,EDTL,Lahr Airport,48.3693,7.8277
BWE,EDVE,Braunschweig-Wolfsburg Airport,52.3192,10.5561
KSF,EDVK,Kassel Airport,51.4184,9.3916
EME,EDWE,Emden Airport,53.3911,7.2275
AGE,EDWG,Wangerooge Airport,53.7825,7.9196
WVN,EDWI,JadeWeser Airport,53.5022,8.0522
JUI,EDWJ,Juist Airport,53.6814,7.0564
LGO,EDWL,Langeoog Airport,53.7424,7.4963
BMK,EDWR,Borkum Airport,53.5964,6.7092
NOD,EDWS,Norden-Norddeich Airport,53.6331,7.1903
VAC,EDWU,Varrelbusch Airfield,52.9083,8.0406
NRD,EDWY,Norderney Airport,53.7069,7.2300
BMR,EDWZ,Baltrum Airport,53.7249,7.3733
HEI,EDXB,Heide-Büsum Airport,54.1533,8.9017
FLF,EDXF,Flensburg-Schäferhaus Airport,54.7733,9.3789
HGL,EDXH,Helgoland-Düne Airport,54.1853,7.9158
QHU,EDXJ,Husum-Schwesing Airport,54.5100,9.1383
PSH,EDXO,Sankt Peter-Ording Airport,54.3089,8.6869
GWT,EDXW,Westerland Sylt Airport,54.9132,8.3405
OHR,EDXY,Wyk auf Föhr Airport,54.6844,8.5283
CHE,EECL,Tallinn Linnahall Heliport,59.4480,24.7533
KDL,EEKA,Kärdla Airport,58.9908,22.8307
URE,EEKE,Kuressaare Airport,58.2299,22.5095
EPU,EEPU,Pärnu Airport,58.4190,24.4728
EES,HEBR,Berenice International Airport / Banas Cape Air Base,23.9804,35.4603
TLL,EETN,Lennart Meri Tallinn Airport,59.4132,24.8326
TAY,EETU,Tartu Airport,58.3074,26.6865
ENF,EFET,Enontekio Airport,68.3626,23.4243
KEV,EFHA,Halli Airport,61.8560,24.7867
HEN,EFHE,Hernesaari Heliport,60.1478,24.9244
HEL,EFHK,Helsinki Vantaa Airport,60.3184,24.9633
HYV,EFHV,Hyvinkää Airfield,60.6544,24.8811
KTQ,EFIT,Kitee Airport,62.1661,30.0736
IVL,EFIV,Ivalo Airport,68.6073,27.4053
JOE,EFJO,Joensuu Airport,62.6588,29.6194
JYV,EFJY,Jyväskylä Airport,62.3995,25.6783
KAU,EFKA,Kauhava Airfield,63.1271,23.0514
KEM,EFKE,Kemi-Tornio Airport,65.7787,24.5821
KAJ,EFKI,Kajaani Airport,64.2855,27.6924
KHJ,EFKJ,Kauhajoki Airfield,62.4632,22.3908
KOK,EFKK,Kokkola-Pietarsaari Airport,63.7212,23.1431
KAO,EFKS,Kuusamo Airport,65.9876,29.2394
KTT,EFKT,Kittilä International Airport,67.7010,24.8468
KUO,EFKU,Kuopio Airport,63.0071,27.7978
LPP,EFLP,Lappeenranta Airport,61.0446,28.1447
MHQ,EFMA,Mariehamn Airport,60.1222,19.8982
MIK,EFMI,Mikkeli Airport,61.6866,27.2018
OUL,EFOU,Oulu Airport,64.9301,25.3546
POR,EFPO,Pori Airport,61.4617,21.8000
RVN,EFRO,Rovaniemi Airport,66.5633,25.8298
SVL,EFSA,Savonlinna Airport,61.9431,28.9451
SJY,EFSI,Seinäjoki Airport,62.6921,22.8323
SOT,EFSO,Sodankyla Airport,67.3950,26.6191
TMP,EFTP,Tampere-Pirkkala Airport,61.4141,23.6044
TKU,EFTU,Turku Airport,60.5141,22.2628
UTI,EFUT,Utti Air Base,60.8964,26.9384
VAA,EFVA,Vaasa Airport,63.0502,21.7625
VRK,EFVR,Varkaus Airport,62.1711,27.8686
YLI,EFYL,Ylivieska Airfield,64.0547,24.7253
AUE,EG-AUE,Abu Rudeis Airport,28.8997,33.2021
BFS,EGAA,Belfast International Airport,54.6575,-6.2158
ENK,EGAB,Enniskillen/St Angelo Airport,54.3983,-7.6512
BHD,EGAC,George Best Belfast City Airport,54.6181,-5.8725
LDY,EGAE,City of Derry Airport,55.0428,-7.1611
BHX,EGBB,Birmingham Airport,52.4539,-1.7480
GLO,EGBJ,Gloucestershire Airport,51.8942,-2.1672
ORM,EGBK,Sywell Aerodrome,52.3053,-0.7931
NQT,EGBN,Nottingham City Airport,52.9200,-1.0792
GBA,EGBP,Cotswold Airport,51.6685,-2.0566
MAN,EGCC,Manchester Airport,53.3494,-2.2795
UPV,EGDJ,Upavon Aerodrome,51.2866,-1.7822
YEO,EGDY,RNAS Yeovilton,51.0094,-2.6388
CAL,EGEC,Campbeltown Airport,55.4372,-5.6864
EOI,EGED,Eday Airport,59.1906,-2.7722
FIE,EGEF,Fair Isle Airport,59.5347,-1.6285
WHS,EGEH,Whalsay Airstrip,60.3768,-0.9272
SKL,EGEI,Broadford Airstrip,57.2531,-5.8278
COL,EGEL,Coll Airport,56.6019,-6.6178
NRL,EGEN,North Ronaldsay Airport,59.3675,-2.4344
OBN,EGEO,Oban Airport,56.4635,-5.3997
PPW,EGEP,Papa Westray Airport,59.3510,-2.9004
SOY,EGER,Stronsay Airport,59.1553,-2.6414
NDY,EGES,Sanday Airport,59.2503,-2.5767
LWK,EGET,Lerwick / Tingwall Airport,60.1922,-1.2436
WRY,EGEW,Westray Airport,59.3505,-2.9501
CSA,EGEY,Colonsay Airstrip,56.0575,-6.2431
HAW,EGFE,Haverfordwest Airport,51.8331,-4.9611
CWL,EGFF,Cardiff International Airport,51.3967,-3.3433
SWS,EGFH,Swansea Airport,51.6014,-4.0710
BRS,EGGD,Bristol Airport,51.3823,-2.7165
LPL,EGGP,Liverpool John Lennon Airport,53.3349,-2.8496
LTN,EGGW,London Luton Airport,51.8747,-0.3683
LEQ,EGHC,Land's End Airport,50.1028,-5.6706
ISC,EGHE,St. Mary's Airport,49.9134,-6.2919
BOH,EGHH,Bournemouth Airport,50.7805,-1.8396
SOU,EGHI,Southampton Airport,50.9503,-1.3568
BBP,EGHJ,Bembridge Airport,50.6781,-1.1094
NQY,EGHQ,Cornwall Airport Newquay,50.4406,-4.9954
QUG,EGHR,Goodwood Aerodrome,50.8598,-0.7601
ACI,EGJA,Alderney Airport,49.7061,-2.2147
GCI,EGJB,Guernsey Airport,49.4350,-2.6020
JER,EGJJ,Jersey Airport,49.2079,-2.1955
ESH,EGKA,Brighton City Airport,50.8356,-0.2972
BQH,EGKB,London Biggin Hill Airport,51.3308,0.0325
LGW,EGKK,London Gatwick Airport,51.1487,-0.1857
LCY,EGLC,London City Airport,51.5053,0.0553
FAB,EGLF,Farnborough Airport,51.2758,-0.7763
BBS,EGLK,Blackbushe Airport,51.3239,-0.8475
LHR,EGLL,London Heathrow Airport,51.4707,-0.4599
SEN,EGMC,London Southend Airport,51.5706,0.6936
LYX,EGMD,Lydd London Ashford Airport,50.9562,0.9391
CAX,EGNC,Carlisle Lake District Airport,54.9375,-2.8092
BLK,EGNH,Blackpool Airport,53.7717,-3.0286
HUY,EGNJ,Humberside Airport,53.5762,-0.3495
BWF,EGNL,Barrow Walney Island Airport,54.1286,-3.2675
LBA,EGNM,Leeds Bradford Airport,53.8659,-1.6606
WRT,EGNO,Warton Aerodrome,53.7451,-2.8831
CEG,EGNR,Hawarden Airport,53.1781,-2.9778
IOM,EGNS,Isle of Man Airport,54.0831,-4.6239
NCL,EGNT,Newcastle International Airport,55.0380,-1.6896
MME,EGNV,Teesside International Airport,54.5092,-1.4294
EMA,EGNX,East Midlands Airport,52.8311,-1.3281
VLY,EGOV,Anglesey Airport,53.2481,-4.5353
KOI,EGPA,Kirkwall Airport,58.9579,-2.9051
LSI,EGPB,Sumburgh Airport,59.8789,-1.2956
WIC,EGPC,Wick John O'Groats Airport,58.4589,-3.0931
ABZ,EGPD,Aberdeen International Airport,57.2019,-2.1978
INV,EGPE,Inverness Airport,57.5425,-4.0475
GLA,EGPF,Glasgow Airport,55.8719,-4.4331
EDI,EGPH,Edinburgh Airport,55.9501,-3.3723
ILY,EGPI,Islay Airport,55.6827,-6.2575
PIK,EGPK,Glasgow Prestwick Airport,55.5015,-4.5772
BEB,EGPL,Benbecula Airport,57.4811,-7.3628
DND,EGPN,Dundee Airport,56.4525,-3.0258
SYY,EGPO,Stornoway Airport,58.2156,-6.3311
BRR,EGPR,Barra Airport,57.0228,-7.4431
PSL,EGPT,Perth/Scone Airport,56.4392,-3.3722
TRE,EGPU,Tiree Airport,56.4992,-6.8692
ADX,EGQL,Leuchars Station Airfield,56.3740,-2.8689
LMO,EGQS,RAF Lossiemouth,57.7052,-3.3392
CBG,EGSC,Cambridge City Airport,52.2050,0.1750
NWI,EGSH,Norwich Airport,52.6758,1.2828
STN,EGSS,London Stansted Airport,51.8850,0.2350
HYC,EGTB,Wycombe Air Park,51.6118,-0.8083
EXT,EGTE,Exeter International Airport,50.7343,-3.4140
OXF,EGTK,London Oxford Airport,51.8369,-1.3200
RCS,EGTO,Rochester Airport,51.3519,0.5033
BEX,EGUB,RAF Benson,51.6144,-1.0960
LKZ,EGUL,RAF Lakenheath,52.4095,0.5612
MHZ,EGUN,RAF Mildenhall,52.3619,0.4864
FFD,EGVA,RAF Fairford,51.6836,-1.7892
BZZ,EGVN,RAF Brize Norton,51.7500,-1.5836
ODH,EGVO,RAF Odiham,51.2341,-0.9428
NHT,EGWU,RAF Northolt,51.5530,-0.4182
QCY,EGXC,RAF Coningsby,53.0930,-0.1660
BEQ,EGXH,RAF Honington,52.3426,0.7729
WTN,EGXW,RAF Waddington,53.1662,-0.5238
KNF,EGYM,RAF Marham,52.6484,0.5507
MPN,EGYP,Mount Pleasant Airport / RAF Mount Pleasant,-51.8226,-58.4458
AMS,EHAM,Amsterdam Airport Schiphol,52.3086,4.7639
MST,EHBK,Maastricht Aachen Airport,50.9111,5.7694
EIN,EHEH,Eindhoven Airport,51.4501,5.3745
GRQ,EHGG,Groningen Airport Eelde,53.1191,6.5777
GLZ,EHGR,Gilze Rijen Air Base,51.5674,4.9318
DHR,EHKD,De Kooy Airfield / Den Helder Naval Air Station,52.9234,4.7806
LEY,EHLE,Lelystad Airport,52.4532,5.5146
LWR,EHLW,Leeuwarden Air Base,53.2286,5.7606
RTM,EHRD,Rotterdam The Hague Airport,51.9569,4.4372
ENS,EHTW,Twente Airport,52.2758,6.8892
UDE,EHVK,Volkel Air Base,51.6572,5.7078
WOE,EHWO,Woensdrecht Air Base,51.4491,4.3420
BYT,EIBN,Bantry Aerodrome,51.6772,-9.4871
BLY,EIBT,Belmullet Aerodrome,54.2228,-10.0308
NNR,EICA,Connemara Regional Airport,53.2303,-9.4678
ORK,EICK,Cork International Airport,51.8413,-8.4911
CFN,EIDL,Donegal Airport,55.0442,-8.3410
DUB,EIDW,Dublin Airport,53.4287,-6.2621
IOR,EIIM,Inishmore Aerodrome,53.1067,-9.6536
INQ,EIIR,Inisheer Aerodrome,53.0647,-9.5109
KKY,EIKK,Kilkenny Airport,52.6508,-7.2961
NOC,EIKN,Ireland West Airport Knock,53.9104,-8.8170
KIR,EIKY,Kerry Airport,52.1809,-9.5238
IIA,EIMN,Inishmaan Aerodrome,53.0930,-9.5681
SNN,EINN,Shannon Airport,52.7020,-8.9248
SXL,EISG,Sligo Airport,54.2802,-8.5992
WAT,EIWF,Waterford Airport,52.1872,-7.0870
EJN,ZBEN,Ejin Banner Taolai Airport,42.0155,101.0005
EJT,EJT,Enejit Airport,6.0404,171.9846
AAR,EKAH,Aarhus Airport,56.3033,10.6183
BLL,EKBI,Billund Airport,55.7403,9.1570
CPH,EKCH,Copenhagen Kastrup Airport,55.6179,12.6560
EBJ,EKEB,Esbjerg Airport,55.5259,8.5534
KRP,EKKA,Midtjyllands Airport / Air Base Karup,56.2971,9.1043
BYR,EKLS,Læsø Airport,57.2772,11.0001
MRW,EKMB,Lolland Falster Maribo Airport,54.6994,11.4382
ODE,EKOD,Odense Hans Christian Andersen Airport,55.4753,10.3272
RKE,EKRK,Copenhagen Roskilde Airport,55.5856,12.1314
RNN,EKRN,Bornholm Airport,55.0633,14.7596
SGD,EKSB,Sønderborg Airport,54.9644,9.7917
CNL,EKSN,Sindal Airport,57.5035,10.2294
SKS,EKSP,Skrydstrup Air Base,55.2210,9.2670
SQW,EKSV,Skive Airport,56.5502,9.1730
TED,EKTS,Thisted Airport,57.0688,8.7052
FAE,EKVG,Vágar Airport,62.0633,-7.2758
STA,EKVJ,Stauning Vestjylland  Airport,55.9901,8.3539
AAL,EKYT,Aalborg Airport,57.0948,9.8499
LUX,ELLX,Luxembourg-Findel International Airport,49.6268,6.2121
EMR,EMR,El Mirador Heliport,17.7521,-89.9249
AES,ENAL,Ålesund Airport,62.5604,6.1108
ANX,ENAN,Andøya Airport  Andenes,69.2952,16.1394
ALF,ENAT,Alta Airport,69.9761,23.3717
FDE,ENBL,Førde Airport  Bringeland,61.3911,5.7569
BNN,ENBN,Brønnøysund Airport  Brønnøy,65.4611,12.2175
BOO,ENBO,Bodø Airport,67.2692,14.3653
BGO,ENBR,Bergen Airport  Flesland,60.2934,5.2181
BJF,ENBS,Båtsfjord Airport,70.6003,29.6926
BVG,ENBV,Berlevåg Airport,70.8715,29.0341
KRS,ENCN,Kristiansand Airport,58.2042,8.0854
BDU,ENDU,Bardufoss Airport,69.0558,18.5404
EVE,ENEV,Harstad/Narvik Airport,68.4913,16.6781
FRO,ENFL,Florø Airport,61.5836,5.0247
OSL,ENGM,Oslo-Gardermoen International Airport,60.1939,11.1004
HMR,ENHA,Hamar Lufthavn  Stavsberg,60.8181,11.0680
HAU,ENHD,Haugesund Airport  Karmøy,59.3453,5.2084
HFT,ENHF,Hammerfest Airport,70.6797,23.6686
HAA,ENHK,Hasvik Airport,70.4867,22.1397
HVG,ENHV,Honningsvåg Airport  Valan,71.0097,25.9836
KSU,ENKB,Kristiansund Airport  Kvernberget,63.1118,7.8245
GLL,ENKL,Gol Airport,60.7911,9.0487
KKN,ENKR,Kirkenes Airport  Høybuktmoen,69.7258,29.8913
LKN,ENLK,Leknes Airport,68.1525,13.6094
MEH,ENMH,Mehamn Airport,71.0297,27.8267
MOL,ENML,Molde Airport  Årø,62.7447,7.2625
MJF,ENMS,Mosjøen Airport  Kjærstad,65.7840,13.2149
LKL,ENNA,Lakselv Airport  Banak,70.0688,24.9735
OSY,ENNM,Namsos Airport,64.4722,11.5786
NTB,ENNO,Notodden Airport,59.5651,9.2132
OLA,ENOL,Ørland Airport,63.6989,9.6040
HOV,ENOV,Ørsta-Volda Airport  Hovden,62.1800,6.0741
MQN,ENRA,Mo i Rana Airport  Røssvoll,66.3639,14.3014
RVK,ENRM,Rørvik Airport  Ryum,64.8383,11.1461
RRS,ENRO,Røros Airport,62.5784,11.3423
RET,ENRS,Røst Airport,67.5265,12.1016
LYR,ENSB,Svalbard Airport  Longyear,78.2461,15.4656
SDN,ENSD,Sandane Airport  Anda,61.8300,6.1058
SOG,ENSG,Sogndal Airport  Haukåsen,61.1561,7.1378
SVJ,ENSH,Svolvær Airport  Helle,68.2433,14.6692
SKN,ENSK,Stokmarknes Airport  Skagen,68.5788,15.0334
SRP,ENSO,Stord Airport  Sørstokken,59.7919,5.3408
SOJ,ENSR,Sørkjosen Airport,69.7868,20.9594
VAW,ENSS,Vardø Airport  Svartnes,70.3554,31.0449
SSJ,ENST,Sandnessjøen Airport  Stokka,65.9568,12.4689
TOS,ENTC,Tromsø Airport,69.6833,18.9189
TRF,ENTO,Sandefjord Airport  Torp,59.1867,10.2586
TRD,ENVA,Trondheim Airport  Værnes,63.4578,10.9240
VDS,ENVD,Vadsø Airport,70.0653,29.8447
VRY,ENVR,Værøy Heliport,67.6546,12.7273
SVG,ENZV,Stavanger Airport  Sola,58.8767,5.6378
BZG,EPBY,Ignacy Jan Paderewski Bydgoszcz Airport,53.0968,17.9777
GDN,EPGD,Gdańsk Lech Wałęsa Airport,54.3776,18.4662
KRK,EPKK,Kraków John Paul II International Airport,50.0777,19.7848
KTW,EPKT,Katowice Wojciech Korfanty International Airport,50.4760,19.0807
LUZ,EPLB,Lublin Airport,51.2402,22.7135
LCJ,EPLL,Łódź Władysław Reymont Airport,51.7219,19.3981
WMI,EPMO,Warsaw Modlin Airport,52.4511,20.6518
POZ,EPPO,Poznań-Ławica Airport,52.4216,16.8234
RDO,EPRA,Warsaw Radom Airport,51.3894,21.2147
RZE,EPRZ,Rzeszów-Jasionka Airport,50.1098,22.0242
SZZ,EPSC,Solidarity Szczecin–Goleniów Airport,53.5847,14.9022
SZY,EPSY,Olsztyn-Mazury Airport,53.4819,20.9377
WAW,EPWA,Warsaw Chopin Airport,52.1657,20.9671
WRO,EPWR,Copernicus Wrocław Airport,51.1037,16.8821
IEG,EPZG,Zielona Góra-Babimost Airport,52.1385,15.7986
ERT,ERT,Erdenet Airport,48.9831,104.1506
RNB,ESDF,Ronneby Airport,56.2667,15.2650
GOT,ESGG,Göteborg Landvetter Airport,57.6628,12.2798
JKG,ESGJ,Jönköping Airport,57.7576,14.0687
LDK,ESGL,Lidköping-Hovby Airport,58.4655,13.1744
GSE,ESGP,Säve Airport,57.7747,11.8704
KVB,ESGR,Skövde Airport,58.4564,13.9727
THN,ESGT,Trollhättan-Vänersborg Airport,58.3181,12.3450
KSK,ESKK,Karlskoga Airport,59.3459,14.4959
MXX,ESKM,Mora Airport,60.9579,14.5114
NYO,ESKN,Stockholm Skavsta Airport,58.7897,16.9115
SCR,ESKS,Scandinavian Mountains Airport,61.1651,12.8335
KID,ESMK,Kristianstad Airport,55.9217,14.0855
OSK,ESMO,Oskarshamn Airport,57.3505,16.4980
KLR,ESMQ,Kalmar Airport,56.6855,16.2876
MMX,ESMS,Malmö Sturup Airport,55.5356,13.3763
HAD,ESMT,Halmstad Airport,56.6911,12.8202
VXO,ESMX,Växjö Kronoberg Airport,56.9291,14.7280
EVG,ESND,Sveg Airport,62.0478,14.4229
GEV,ESNG,Gällivare Airport,67.1324,20.8146
KRF,ESNK,Kramfors-Sollefteå Höga Kusten Airport,63.0486,17.7689
LYC,ESNL,Lycksele Airport,64.5483,18.7162
SDL,ESNN,Sundsvall-Härnösand Airport,62.5281,17.4439
OER,ESNO,Örnsköldsvik Airport,63.4083,18.9900
KRN,ESNQ,Kiruna Airport,67.8220,20.3368
SFT,ESNS,Skellefteå Airport,64.6248,21.0769
UME,ESNU,Umeå Airport,63.7918,20.2828
VHM,ESNV,Vilhelmina South Lapland Airport,64.5791,16.8336
AJR,ESNX,Arvidsjaur Airport,65.5903,19.2819
SOO,ESNY,Söderhamn Airport,61.2615,17.0991
OSD,ESNZ,Åre Östersund Airport,63.1935,14.5042
ORB,ESOE,Örebro Airport,59.2237,15.0380
HFS,ESOH,Hagfors Airport,60.0201,13.5789
KSD,ESOK,Karlstad Airport,59.4447,13.3374
VST,ESOW,Stockholm Västerås Airport,59.5894,16.6336
LLA,ESPA,Luleå Airport,65.5438,22.1220
ARN,ESSA,Stockholm-Arlanda Airport,59.6485,17.9288
BMA,ESSB,Stockholm-Bromma Airport,59.3544,17.9417
BLE,ESSD,Dala Airport,60.4220,15.5152
HLF,ESSF,Hultsfred Airport,57.5258,15.8233
GVX,ESSK,Gävle Sandviken Airport,60.5933,16.9514
LPI,ESSL,Linköping City Airport,58.4049,15.6845
NRK,ESSP,Norrköping Airport,58.5863,16.2506
TYF,ESST,Torsby Airport,60.1576,12.9913
EKT,ESSU,Eskilstuna Airport,59.3511,16.7084
VBY,ESSV,Visby Airport,57.6628,18.3462
VVK,ESSW,Västervik Airport,57.7800,16.5236
AGH,ESTA,Ängelholm-Helsingborg Airport,56.2961,12.8471
SQO,ESUD,Storuman Airport,64.9609,17.6966
IDB,ESUE,Idre Airport,61.8697,12.6894
PJA,ESUP,Pajala Airport,67.2446,23.0749
HMV,ESUT,Hemavan Airport,65.8061,15.0828
GLC,ET-GLC,Geladi Airport,6.9844,46.4214
SHC,HASR,Shire Inda Selassie Airport,14.0757,38.2736
SPM,ETAD,Spangdahlem Air Base,49.9765,6.6984
RMS,ETAR,Ramstein Air Base,49.4369,7.6003
FRZ,ETHF,Fritzlar Army Airfield,51.1146,9.2860
ILH,ETIK,Illesheim Army Heliport,49.4739,10.3881
KZG,ETIN,Kitzingen Airfield,49.7443,10.2073
FCN,ETMN,Sea-Airport Cuxhaven/Nordholz / Nordholz Naval Airbase,53.7677,8.6592
GKE,ETNG,Geilenkirchen Air Base,50.9608,6.0424
RLG,ETNL,Rostock-Laage Airport,53.9182,12.2783
WBG,ETNS,Schleswig Air Base,54.4593,9.5163
WIE,ETOU,Wiesbaden Army Airfield,50.0498,8.3254
IGS,ETSI,Ingolstadt Manching Airport,48.7157,11.5340
LPX,EVLA,Liepāja International Airport,56.5175,21.0969
RIX,EVRA,Riga International Airport,56.9208,23.9707
VNT,EVVA,Ventspils International Airport,57.3578,21.5442
EXI,EXI,Excursion Inlet Seaplane Base,58.4205,-135.4490
KUN,EYKA,Kaunas International Airport,54.9640,24.0858
PLQ,EYPA,Palanga International Airport,55.9732,21.0939
PNV,EYPP,Panevėžys Air Base,55.7294,24.4608
SQQ,EYSA,Šiauliai International Airport,55.8939,23.3950
VNO,EYVI,Vilnius International Airport,54.6341,25.2858
RGR,F23,Ranger Municipal Airport,32.4526,-98.6828
ALJ,FAAB,Alexander Bay Airport,-28.5750,16.5333
AGZ,FAAG,Aggeneys Airport,-29.2818,18.8139
ADY,FAAL,Alldays Airport,-22.6790,29.0555
BIY,FABE,Bisho Airport,-32.8971,27.2791
BFN,FABL,Bram Fischer International Airport,-29.0927,26.3024
UTE,FABU,Bultfontein Airport,-28.2734,26.1358
ASS,FAAR,Arathusa Safari Lodge Airport,-24.7405,31.5180
CDO,FACD,Cradock Airport,-32.1567,25.6456
CPT,FACT,Cape Town International Airport,-33.9740,18.6043
DUK,FADK,Mubatuba Airport,-28.3684,32.2481
PZL,FADQ,Zulu Inyala Airport,-27.8494,32.3097
ELS,FAEL,King Phalo Airport,-33.0356,27.8259
EMG,FAEM,Empangeni Airport,-28.7200,31.8900
ELL,FAER,Ellisras Matimba Airport,-23.7267,27.6883
FCB,FAFB,Ficksburg Sentraoes Airport,-28.8231,27.9089
GCJ,FAGC,Grand Central Airport,-25.9863,28.1401
GRJ,FAGG,George Airport,-34.0056,22.3789
GIY,FAGI,Giyani Airport,-23.2833,30.6500
QRA,FAGM,Rand Airport,-26.2425,28.1512
HLW,FAHL,Hluhluwe Airport,-28.0166,32.2752
HRS,FAHR,Harrismith Airport,-28.2351,29.1062
HDS,FAHS,Eastgate Airport / Air Force Base Hoedspruit,-24.3619,31.0529
KXE,FAKD,P C Pelser Airport,-26.8711,26.7180
KIM,FAKM,Kimberley Airport,-28.8054,24.7649
MQP,FAKN,Kruger Mpumalanga International Airport,-25.3833,31.1053
KOF,FAKP,Komatipoort Airport,-25.4403,31.9300
KMH,FAKU,Johan Pienaar Airport,-27.4566,23.4119
KLZ,FAKZ,Kleinsee Airport,-29.6884,17.0940
HLA,FALA,Lanseria International Airport,-25.9390,27.9266
LMR,FALC,Lime Acres Finsch Mine Airport,-28.3601,23.4391
LDZ,FALD,Londolozi Airport,-24.7478,31.4743
DUR,FALE,King Shaka International Airport,-29.6144,31.1197
LCD,FALO,Louis Trichardt Airport,-23.0619,29.8647
SDB,FALW,Langebaanweg Airport,-32.9689,18.1603
LAY,FALY,Ladysmith Airport,-28.5817,29.7497
AAM,FAMD,Malamala Airport,-24.8169,31.5441
MGH,FAMG,Margate Airport,-30.8574,30.3430
MEZ,FAMH,Musina(Messina) Airport,-22.3557,29.9862
MBD,FAMM,Mmabatho International Airport,-25.7984,25.5480
LLE,FAMN,Malelane Airport,-25.4736,31.5659
MZY,FAMO,Mossel Bay Airport,-34.1587,22.0557
MZQ,FAMU,Mkuze Airport,-27.6261,32.0443
NCS,FANC,Newcastle Airport,-27.7706,29.9769
NGL,FANG,Ngala Airport,-24.3890,31.3260
NLP,FANS,Nelspruit Airport,-25.5000,30.9138
OVG,FAOB,Overberg Airport,-34.5635,20.2524
OUH,FAOH,Oudtshoorn Airport,-33.6070,22.1890
JNB,FAOR,O.R. Tambo International Airport,-26.1401,28.2468
AFD,FAPA,Port Alfred Airport,-33.5551,26.8817
PLZ,FAPE,Chief Dawid Stuurman International Airport,-33.9897,25.6174
PBZ,FAPG,Plettenberg Bay Airport,-34.0882,23.3287
PHW,FAPH,Hendrik Van Eck Airport,-23.9372,31.1554
JOH,FAPJ,Port St Johns Airport,-31.6061,29.5218
PRK,FAPK,Prieska Airport,-29.6836,22.7706
PZB,FAPM,Pietermaritzburg Airport,-29.6490,30.3987
NTY,FAPN,Pilanesberg International Airport,-25.3338,27.1734
PTG,FAPP,Polokwane International Airport,-23.8453,29.4586
PCF,FAPS,Potchefstroom Airport,-26.6710,27.0819
UTW,FAQT,Queenstown Airport,-31.9202,26.8822
RCB,FARB,Richards Bay Airport,-28.7410,32.0921
RVO,FARI,Reivilo Airport,-27.5472,24.1725
ROD,FARS,Robertson Airport,-33.8122,19.9028
SBU,FASB,Springbok Airport,-29.6893,17.9396
ZEC,FASC,Secunda Airport,-26.5241,29.1701
GSS,FASE,Sabi Sabi Airport,-24.9474,31.4488
SIS,FASS,Sishen Airport,-27.6486,22.9993
SZK,FASZ,Skukuza Airport,-24.9609,31.5886
THY,FATH,Thohoyandou Airport,-23.0769,30.3836
TCU,FATN,Thaba Nchu Tar Airport,-29.3178,26.8228
LTA,FATZ,Tzaneen Airport,-23.8244,30.3293
ULD,FAUL,Prince Mangosuthu Buthelezi Airport,-28.3206,31.4165
UTN,FAUP,Upington Airport,-28.4002,21.2636
ULX,FAUS,Ulusaba Airport,-24.7854,31.3549
UTT,FAUT,K. D. Matanzima Airport,-31.5464,28.6734
VRU,FAVB,Vryburg Airport,-26.9824,24.7288
VIR,FAVG,Virginia Airport,-29.7706,31.0584
VRE,FAVR,Vredendal Airport,-31.6410,18.5448
VYD,FAVY,Vryheid Airport,-27.7869,30.7964
PRY,FAWB,Wonderboom Airport,-25.6539,28.2242
WKF,FAWK,Waterkloof Air Force Base,-25.8300,28.2225
WEL,FAWM,Welkom Airport,-27.9968,26.6633
FRW,FBPM,Phillip Gaonwe Matante International Airport,-21.1592,27.4688
GNZ,FBGZ,Ghanzi Airport,-21.6925,21.6581
JWA,FBJW,Jwaneng Airport,-24.6023,24.6910
BBK,FBKE,Kasane International Airport,-17.8317,25.1662
KHW,FBKR,Khwai River Lodge Airport,-19.1495,23.7879
MUB,FBMN,Maun International Airport,-19.9705,23.4314
ORP,FBOR,Orapa Airport,-21.2659,25.3197
GBE,FBSK,Sir Seretse Khama International Airport,-24.5552,25.9182
SXN,FBSN,Sua Pan Airport,-20.5534,26.1158
PKW,FBSP,Selebi Phikwe Airport,-22.0583,27.8288
SVT,FBSV,Savuti Airport,-18.5185,24.0777
SWX,FBSW,Shakawe Airport,-18.3739,21.8326
TLD,FBTL,Tuli Lodge Airport,-22.1919,29.1312
TBY,FBTS,Tshabong Airport,-26.0345,22.4013
BZV,FCBB,Maya-Maya International Airport,-4.2517,15.2530
DJM,FCBD,Djambala Airport,-2.5169,14.7544
KNJ,FCBK,Kindamba Airport,-3.7498,14.4903
LCO,FCBL,Lague Airport,-2.4500,14.5330
MUY,FCBM,Mouyondzi Airport,-4.0149,13.9661
SIB,FCBS,Sibiti Airport,-3.6866,13.3740
NKY,FCBY,Yokangassi Airport,-4.2231,13.2863
ANJ,FCBZ,Zanaga Airport,-2.8467,13.8212
MSX,FCMM,Mossendjo Airport,-2.9500,12.7000
BOE,FCOB,Boundji Airport,-1.0310,15.3360
OLL,FCOD,Oyo Ollombo Airport,-1.2267,15.9100
EWO,FCOE,Ewo Airport,-0.8830,14.8000
GMM,FCOG,Gamboma Airport,-1.8294,15.8852
ION,FCOI,Impfondo Airport,1.5900,18.0466
KEE,FCOK,Kelle Airport,-0.0713,14.5066
MKJ,FCOM,Makoua Airport,-0.0208,15.5777
FTX,FCOO,Owando Airport,-0.5246,15.9378
SOE,FCOS,Souanke Airport,1.9983,14.1742
BTB,FCOT,Betou Airport,3.0576,18.5144
OUE,FCOU,Ouesso Airport,1.6160,16.0379
KMK,FCPA,Makabana Airport,-3.4830,12.6170
DIS,FCPD,Ngot Nzoungou Airport,-4.2063,12.6599
PNR,FCPP,Antonio Agostinho-Neto International Airport,-4.8160,11.8866
MTS,FDMS,Matsapha International Airport,-26.5289,31.3076
SHO,FDSK,King Mswati III International Airport,-26.3586,31.7169
CRF,FEFC,Carnot Airport,4.9370,15.8940
BGF,FEFF,Bangui M'Poko International Airport,4.3985,18.5188
BGU,FEFG,Bangassou Airport,4.7850,22.7810
IRO,FEFI,Birao Airport,10.2364,22.7169
BBY,FEFM,Bambari Airport,5.8470,20.6499
NDL,FEFN,N'Délé Airport,8.4272,20.6352
BOP,FEFO,Bouar Airport,5.9580,15.6370
BIV,FEFR,Bria Airport,6.5278,21.9894
BSN,FEFS,Bossangoa Airport,6.4920,17.4290
BBT,FEFT,Berbérati Airport,4.2216,15.7864
ODA,FEFW,Ouadda Airport,8.0106,22.3986
AIG,FEFY,Yalinga Airport,6.5200,23.2600
IMO,FEFZ,Zemio Airport,5.0022,25.1019
MKI,FEGE,M'Boki Airport,5.3330,25.9319
BTG,FEGF,Batangafo Airport,7.3141,18.3088
GDI,FEGL,Gordil Airport,9.5811,21.7282
BMF,FEGM,Bakouma Airport,5.6940,22.8010
ODJ,FEGO,Ouanda Djallé Airport,8.9000,22.7830
RFA,FEGR,Rafaï Airport,4.9886,23.9278
BCF,FEGU,Bouca Airport,6.5170,18.2670
BOZ,FEGZ,Bozoum Airport,6.3442,16.3219
NBN,FGAN,Annobón Airport,-1.4086,5.6242
BSG,FGBT,Bata International Airport,1.9055,9.8057
GEM,FGMY,President Obiang Nguema International Airport,1.6764,11.0249
SSG,FGSL,Malabo International Airport,3.7553,8.7087
ASI,FHAW,RAF Ascension Island,-7.9702,-14.3927
HLE,FHSH,Saint Helena International Airport,-15.9589,-5.6461
MRU,FIMP,Sir Seewoosagur Ramgoolam International Airport,-20.4302,57.6836
RRG,FIMR,Sir Charles Gaetan Duval Airport,-19.7567,63.3593
KVU,FJ-0004,Korolevu Seaplane Base,-18.2156,177.7298
NKW,FJDG,Naval Support Facility Diego Garcia,-7.3133,72.4111
KBI,FKKB,Kribi Airport,2.8739,9.9778
TKC,FKKC,Tiko Airport,4.0892,9.3605
DLA,FKKD,Douala International Airport,4.0061,9.7195
MMF,FKKF,Mamfe Airport,5.7042,9.3064
BLC,FKKG,Bali Airport,5.8953,10.0339
KLE,FKKH,Kaélé Airport,10.0925,14.4456
OUR,FKKI,Batouri Airport,4.4750,14.3625
GXX,FKKJ,Yagoua Airport,10.3561,15.2372
MVR,FKKL,Salak Airport,10.4514,14.2574
FOM,FKKM,Foumban Nkounja Airport,5.6369,10.7508
NGE,FKKN,N'Gaoundéré Airport,7.3570,13.5592
BTA,FKKO,Bertoua Airport,4.5486,13.7261
GOU,FKKR,Garoua International Airport,9.3348,13.3721
DSC,FKKS,Dschang Airport,5.4500,10.0670
BFX,FKKU,Bafoussam Airport,5.5369,10.3546
BPC,FKKV,Bamenda Airport,6.0392,10.1226
EBW,FKKW,Ebolowa Airport,2.8760,11.1850
YAO,FKKY,Yaoundé Ville Airport,3.8360,11.5235
NSI,FKYS,Yaoundé Nsimalen International Airport,3.7226,11.5533
MMQ,FLBA,Mbala Airport,-8.8592,31.3364
CIP,FLCP,Chipata Airport,-13.5583,32.5872
CGX,FLCU,Chunga Airstrip,-15.0540,25.9857
JEK,FLJK,Jeki Airport,-15.6334,29.6036
CGJ,FLKE,Kasompe Airport,-12.5728,27.8939
KLB,FLKL,Kalabo Airport,-14.9988,22.6484
KMZ,FLKO,Kaoma Airport,-14.8000,24.7830
KAA,FLKS,Kasama Airport,-10.2102,31.1230
ZKB,FLKY,Kasaba Bay Airport,-8.5250,30.6630
LVI,FLHN,Harry Mwanga Nkumbula International Airport,-17.8215,25.8196
LXU,FLLK,Lukulu Airport,-14.3759,23.2486
LUN,FLKK,Kenneth Kaunda International Airport,-15.3308,28.4527
MNS,FLMA,Mansa Airport,-11.1370,28.8726
MFU,FLMF,Mfuwe International Airport,-13.2589,31.9366
MNR,FLMG,Mongu Airport,-15.2545,23.1623
ZGM,FLNA,Ngoma Airport,-15.9658,25.9333
RYL,FLRZ,Royal Zambezi Lodge Airstrip,-15.7248,29.3035
NLA,FLSK,Simon Mwansa Kapwepwe International Airport,-12.9651,28.5156
SXG,FLSN,Senanga Airport,-16.1130,23.2982
KIW,FLSO,Southdowns Airport,-12.9005,28.1499
SJQ,FLSS,Sesheke Airport,-17.4763,24.3061
SLI,FLSW,Solwesi Airport,-12.1737,26.3651
FLT,FLT,Flat Airport,62.4526,-157.9890
BBZ,FLZB,Zambezi Airport,-13.5360,23.1056
ULI,FM-ULI,Ulithi Airport,10.0198,139.7900
HAH,FMCH,Prince Said Ibrahim International Airport,-11.5337,43.2719
NWA,FMCI,Mohéli Bandar Es Eslam Airport,-12.2981,43.7665
AJN,FMCV,Ouani Airport,-12.1310,44.4300
DZA,FMCZ,Dzaoudzi Pamandzi International Airport,-12.8093,45.2818
RUN,FMEE,Roland Garros Airport,-20.8901,55.5189
ZSE,FMEP,Saint-Pierre Pierrefonds Airport,-21.3194,55.4225
OHB,FMFE,Ambohibary Airport,-18.9175,48.2182
WML,FMMC,Malaimbandy Airport,-20.3554,45.5434
ATJ,FMME,Antsirabe Airport,-19.8392,47.0637
WAQ,FMMG,Antsalova Airport,-18.7013,44.6149
VVB,FMMH,Mahanoro Airport,-19.8330,48.8000
TNR,FMMI,Ivato International Airport,-18.7969,47.4788
JVA,FMMK,Ankavandra Airport,-18.8050,45.2735
BMD,FMML,Belo sur Tsiribihina Airport,-19.6867,44.5419
ZVA,FMMN,Miandrivazo Airport,-19.5628,45.4508
MXT,FMMO,Maintirano Airport,-18.0500,44.0330
ILK,FMMQ,Atsinanana Airport,-19.5830,48.8030
TVA,FMMR,Morafenobe Airport,-17.8501,44.9205
SMS,FMMS,Sainte Marie Airport,-17.0939,49.8158
TMM,FMMT,Toamasina Ambalamanasy Airport,-18.1135,49.3923
WTA,FMMU,Tambohorano Airport,-17.4761,43.9728
MOQ,FMMV,Morondava Airport,-20.2847,44.3176
WTS,FMMX,Tsiroanomandidy Airport,-18.7597,46.0541
VAT,FMMY,Vatomandry Airport,-19.3833,48.9500
WAM,FMMZ,Ambatondrazaka Airport,-17.7954,48.4426
DIE,FMNA,Arrachart Airport,-12.3494,49.2917
WBE,FMNB,Ankaizina Airport,-14.5443,48.6914
WMR,FMNC,Mananara Nord Airport,-16.1639,49.7738
ZWA,FMND,Andapa Airport,-14.6517,49.6206
AMB,FMNE,Ambilobe Airport,-13.1884,48.9880
WBD,FMNF,Avaratra Airport,-15.2000,48.4830
WPB,FMNG,Port Bergé Airport,-15.5843,47.6236
ANM,FMNH,Antsirabe Airport,-14.9994,50.3202
HVA,FMNL,Analalava Airport,-14.6295,47.7636
MJN,FMNM,Amborovy Airport,-15.6668,46.3512
NOS,FMNN,Nosy Be International Airport,-13.3121,48.3148
DWB,FMNO,Soalala Airport,-16.1017,45.3588
WMP,FMNP,Mampikony Airport,-16.0719,47.6430
BPY,FMNQ,Besalampy Airport,-16.7445,44.4825
WMN,FMNR,Maroantsetra Airport,-15.4377,49.6891
SVB,FMNS,Sambava Airport,-14.2786,50.1747
TTS,FMNT,Tsaratanana Airport,-16.7511,47.6190
VOH,FMNV,Vohemar Airport,-13.3758,50.0028
WAI,FMNW,Ambalabe Airport,-14.8988,47.9939
WMA,FMNX,Mandritsara Airport,-15.8460,48.8347
IVA,FMNZ,Ampampamena Airport,-13.4848,48.6327
WBO,FMSB,Antsoa Airport,-21.6070,45.1360
WMD,FMSC,Mandabe Airport,-21.0463,44.9404
FTU,FMSD,Tôlanaro Airport,-25.0381,46.9561
WFI,FMSF,Fianarantsoa Airport,-21.4416,47.1117
RVA,FMSG,Farafangana Airport,-22.8053,47.8206
IHO,FMSI,Ihosy Airport,-22.4047,46.1649
MJA,FMSJ,Manja Airport,-21.4261,44.3165
WVK,FMSK,Manakara Airport,-22.1197,48.0217
OVA,FMSL,Bekily Airport,-24.2357,45.3045
MNJ,FMSM,Mananjary Airport,-21.2018,48.3583
TDV,FMSN,Samangoky Airport,-21.7000,43.7330
MXM,FMSR,Morombe Airport,-21.7538,43.3748
TLE,FMST,Toliara Airport,-23.3834,43.7285
VND,FMSU,Vangaindrano Airport,-23.3508,47.5817
BKU,FMSV,Betioky Airport,-23.7330,44.3890
AMP,FMSY,Ampanihy Airport,-24.6997,44.7342
WAK,FMSZ,Ankazoabo Airport,-22.2964,44.5315
AZZ,FNAM,Ambriz Airport,-7.8622,13.1161
SSY,FNBC,Mbanza Congo Airport,-6.2699,14.2470
BUG,FNBG,Benguela Airport,-12.6090,13.4037
NBJ,FNBJ,Dr. Antonio Agostinho Neto International Airport,-9.0507,13.4991
GGC,FNBL,Lumbala Airport,-14.1051,21.4508
CAB,FNCA,Cabinda Airport,-5.5984,12.1881
CFF,FNCF,Cafunfo Airport,-8.7836,17.9897
PGI,FNCH,Chitato Airport,-7.3589,20.8047
KNP,FNCP,Kapanda Airport,-9.7694,15.4553
CBT,FNCT,Catumbela Airport,-12.4792,13.4869
CTI,FNCV,Cuito Cuanavale Airport,-15.1603,19.1561
CXM,FNCX,Camaxilo Airport,-8.3736,18.9236
CAV,FNCZ,Cazombo Airport,-11.8931,22.9162
FND,FND,Funadhoo Airport,6.1624,73.2875
DUE,FNDU,Dundo Airport,-7.4009,20.8185
VPE,FNGI,Ngjiva Pereira Airport,-17.0435,15.6838
NOV,FNHU,Albano Machado Airport,-12.8089,15.7605
SVP,FNKU,Kuito Airport,-12.4046,16.9474
LLT,FNLB,Lobito Airport,-12.3712,13.5366
LBZ,FNLK,Lucapa Airport,-8.4423,20.7327
LAD,FNLU,Quatro de Fevereiro International Airport,-8.8584,13.2312
LZM,FNLZ,Luzamba Airport,-9.1160,18.0493
MEG,FNMA,Malanje Airport,-9.5251,16.3124
SPP,FNME,Menongue Airport,-14.6576,17.7198
MSZ,FNMO,Welwitschia Mirabilis International Airport,-15.2612,12.1468
GXG,FNNG,Negage Airport,-7.7545,15.2877
PBN,FNPA,Porto Amboim Airport,-10.7220,13.7655
VHC,FNSA,Saurimo Airport,-9.6891,20.4319
SZA,FNSO,Soyo Airport,-6.1411,12.3718
NDD,FNSU,Sumbe Airport,-11.1679,13.8475
UAL,FNUA,Luau Airport,-10.7158,22.2311
SDD,FNUB,Lubango Mukanka International Airport,-14.9248,13.5767
LUO,FNUE,Luena Airport,-11.7681,19.8977
UGO,FNUG,Uige Airport,-7.6031,15.0278
CEO,FNWK,Waco Kungo Airport,-11.4264,15.1014
XGN,FNXA,Xangongo Airport,-16.7554,14.9653
ARZ,FNZE,N'zeto Airport,-7.2593,12.8624
NZA,FNZG,Nzagi Airport,-7.7169,21.3582
AKE,FOGA,Akieni Airport,-1.1397,13.9036
BGB,FOGB,Booue Airport,-0.1075,11.9438
KDN,FOGE,Ndende Airport,-2.4000,11.3670
FOU,FOGF,Fougamou Airport,-1.2783,10.6125
MBC,FOGG,M'Bigou Airport,-1.8931,11.9125
MGX,FOGI,Moabi Airport,-2.4552,10.9358
KDJ,FOGJ,Ville Airport,-0.1830,10.7500
KOU,FOGK,Koulamoutou Mabimbi Airport,-1.1846,12.4413
MJL,FOGM,Mouilla Ville Airport,-1.8451,11.0567
OYE,FOGO,Oyem Airport,1.5431,11.5814
OKN,FOGQ,Okondja Airport,-0.6652,13.6731
LBQ,FOGR,Lambarene Airport,-0.7044,10.2457
MVX,FOGV,Minvoul Airport,2.1524,12.1080
AWE,FOGW,Alowe Airport,-0.5450,9.4440
BMM,FOOB,Bitam Airport,2.0756,11.4932
MFF,FOOD,Moanda Airport,-1.5266,13.2513
MKB,FOOE,Mekambo Airport,0.9767,13.9685
POG,FOOG,Port Gentil International Airport,-0.7117,8.7544
OMB,FOOH,Omboue Hospital Airport,-1.5747,9.2627
IGE,FOOI,Tchongorove Airport,-1.9308,9.3196
MKU,FOOK,Makokou Airport,0.5792,12.8909
LBV,FOOL,Libreville Leon M'ba International Airport,0.4590,9.4121
MZC,FOOM,Mitzic Airport,0.7830,11.5500
MVB,FOON,M'Vengue El Hadj Omar Bongo Ondimba International Airport,-1.6562,13.4380
LTL,FOOR,Lastourville Airport,-0.8267,12.7486
TCH,FOOT,Tchibanga Airport,-2.8885,10.9554
MYB,FOOY,Mayumba Airport,-3.4584,10.6765
FOY,FOY,Foya Airport,8.3513,-10.2269
PCP,FPPR,Principe Airport,1.6612,7.4111
TMS,FPST,São Tomé International Airport,0.3782,6.7122
ANO,FQAG,Angoche Airport,-16.1819,39.9452
BEW,FQBR,Beira International Airport,-19.7964,34.9076
FXO,FQCB,Cuamba Airport,-14.8150,36.5300
VPY,FQCH,Chimoio Airport,-19.1513,33.4290
IHC,FQIA,Inhaca Airport,-25.9971,32.9294
IBO,FQIB,Ibo Airport,-12.3502,40.6023
INH,FQIN,Inhambane Airport,-23.8764,35.4085
VXC,FQLC,Lichinga Airport,-13.2740,35.2663
LFB,FQLU,Lumbo Airport,-15.0331,40.6717
MPM,FQMA,Maputo Airport,-25.9208,32.5726
MUD,FQMD,Mueda Airport,-11.6729,39.5631
MZB,FQMP,Mocímboa da Praia Airport,-11.3618,40.3549
MNC,FQNC,Nacala International Airport,-14.4882,40.7122
APL,FQNP,Nampula Airport,-15.1056,39.2818
POL,FQPB,Pemba Airport,-12.9933,40.5249
PDD,FQPO,Ponta do Ouro Airport,-26.8269,32.8384
UEL,FQQL,Quelimane Airport,-17.8555,36.8691
TET,FQTT,Tete Airport,-16.1048,33.6402
VNX,FQVL,Vilankulo Airport,-22.0184,35.3133
VJB,FQXA,Xai-Xai Chongoene Airport,-24.8929,33.7530
JAH,FR-0205,Zi Les Paluds Heliport,43.2867,5.6039
DES,FSDR,Desroches Airport,-5.6967,53.6558
SEZ,FSIA,Seychelles International Airport,-4.6743,55.5218
FSL,FSL,Fossil Downs Airport,-18.1321,125.7873
PRI,FSPP,Praslin Island Airport,-4.3193,55.6916
BDI,FSSB,Bird Island Airport,-3.7237,55.2061
DEI,FSSD,Denis Island Airport,-3.8021,55.6674
FRK,FSSF,Frégate Island Airport (UNUSABLE),-4.5828,55.9449
SRH,FTTA,Sarh Airport,9.1444,18.3744
OGR,FTTB,Bongor Airport,10.2883,15.3796
AEH,FTTC,Abeche Airport,13.8470,20.8443
MQQ,FTTD,Moundou Airport,8.6285,16.0742
LTC,FTTH,Lai Airport,9.3979,16.3125
ATV,FTTI,Ati Airport,13.2398,18.3159
NDJ,FTTJ,N'Djamena International Airport,12.1337,15.0340
BKR,FTTK,Bokoro Airport,12.3855,17.0710
OTC,FTTL,Bol-Berim Airport,13.4436,14.7393
MVO,FTTM,Mongo Airport,12.1705,18.6756
AMC,FTTN,Am Timan Airport,11.0340,20.2740
PLF,FTTP,Pala Airport,9.3781,14.9250
OUT,FTTS,Bousso Airport,10.4830,16.7170
AMO,FTTU,Mao Airport,14.1456,15.3144
FYT,FTTY,Faya-Largeau Airport,17.9171,19.1111
FUB,FUB,Fulleborn Airport,-6.1518,150.6264
BZH,FVBM,Bumi Hills Airport,-16.8165,28.3448
BUQ,FVJN,Joshua Mqabuko Nkomo International Airport,-20.0163,28.6229
CHJ,FVCH,Chipinge Airport,-20.2067,32.6283
BFO,FVCZ,Buffalo Range Airport,-21.0081,31.5786
VFA,FVFA,Victoria Falls International Airport,-18.0974,25.8369
HRE,FVRG,Robert Gabriel Mugabe International Airport,-17.9318,31.0928
KAB,FVKB,Kariba Airport,-16.5198,28.8850
MJW,FVMH,Mahenye Airport,-21.2310,32.3336
UTA,FVMU,Mutare Airport,-18.9975,32.6272
MVZ,FVMV,Masvingo International Airport,-20.0553,30.8591
GWE,FVTL,Josiah Tungamirai Air Force Base,-19.4367,29.8619
HWN,FVWN,Hwange National Park Airport,-18.6299,27.0210
WKI,FVWT,Hwange (Town) Airport,-18.3630,26.5198
CEH,FWCD,Chelinda Airfield,-10.5573,33.7971
BLZ,FWCL,Chileka International Airport,-15.6772,34.9723
CMK,FWCM,Club Makokola Airport,-14.3065,35.1315
DWA,FWDW,Dwangwa Airport,-12.5175,34.1319
KGJ,FWKA,Karonga Airport,-9.9536,33.8933
KBQ,FWKG,Kasungu Airport,-13.0146,33.4686
LLW,FWKI,Kamuzu International Airport,-13.7894,33.7810
LIX,FWLK,Likoma Island Airport,-12.0798,34.7363
MYZ,FWMY,Monkey Bay Airport,-14.0836,34.9197
LMB,FWSM,Salima Airport,-13.7559,34.5842
ZZU,FWUU,Mzuzu Airport,-11.4447,34.0118
LEF,FXLK,Lebakeng Airport,-29.8908,28.6556
LRB,FXLR,Leribe Airport,-28.8556,28.0528
LES,FXLS,Lesobeng Airport,-29.7556,28.3571
MSG,FXMA,Matsaile Airport,-29.8406,28.7767
MFC,FXMF,Mafeteng Airport,-29.8011,27.2436
MKH,FXMK,Mokhotlong Airport,-29.2818,29.0728
MSU,FXMM,Moshoeshoe I International Airport,-29.4563,27.5545
NKU,FXNK,Nkaus Airport,-30.0217,28.1969
PEL,FXPG,Pelaneng Airport,-29.0881,28.4972
UTG,FXQG,Quthing Airport,-30.4075,27.6933
UNE,FXQN,Qacha's Nek Airport,-30.1117,28.6719
SHK,FXSH,Sehonghong Airport,-29.7311,28.7679
SKQ,FXSK,Sekakes Airport,-30.0389,28.3703
SOK,FXSM,Semonkong Airport,-29.8386,28.0600
SHZ,FXSS,Seshutes Airport,-29.2676,28.5523
THB,FXTA,Thaba-Tseka Airport,-29.5228,28.6158
TKO,FXTK,Tlokoeng Airport,-29.2330,28.8830
AIW,FYAA,Ai-Ais Airport,-27.9950,17.5966
ADI,FYAR,Arandis Airport,-22.4619,14.9793
GOG,FYGB,Gobabis Airport,-22.5044,18.9731
GFY,FYGF,Grootfontein Airport,-19.6022,18.1227
HAL,FYHI,Halali Airport,-19.0285,16.4585
KAS,FYKB,Karasburg Airport,-28.0297,18.7385
MPA,FYKM,Katima Mulilo Airport,-17.6343,24.1767
KMP,FYKT,Keetmanshoop Airport,-26.5398,18.1114
LHU,FYLS,Lianshulu Lodge Airstrip,-18.1165,23.3935
LUD,FYLZ,Luderitz Airport,-26.6874,15.2429
MJO,FYME,Mount Etjo Airport,-21.0233,16.4528
MQG,FYMG,Midgard Airport,-22.0106,17.3700
OKU,FYMO,Mokuti Lodge Airport,-18.8128,17.0594
NNI,FYNA,Namutoni Airport,-18.8064,16.9272
OND,FYOA,Ondangwa Airport,-17.8782,15.9526
OMG,FYOE,Omega Airport,-18.0303,22.1897
OMD,FYOG,Oranjemund Airport,-28.5853,16.4464
OKF,FYOO,Okaukuejo Airport,-19.1492,15.9119
OPW,FYOP,Opuwa Airport,-18.0560,13.8521
OHI,FYOS,Oshakati Airport,-17.7970,15.6993
